city,city_ascii,lat,lng,country,iso2,iso3,admin_name,capital,population,id
Puerto Williams,Puerto Williams,-54.9333,-67.6167,Chile,CL,CHL,Magallanes y de la Antártica Chilena,minor,1646,1152455279
Ushuaia,Ushuaia,-54.8019,-68.3031,Argentina,AR,ARG,"Tierra del Fuego, Antártida e Islas del Atlántico Sur",admin,56956,1032847885
Kaiken,Kaiken,-54.5062,-67.1905,Argentina,AR,ARG,"Tierra del Fuego, Antártida e Islas del Atlántico Sur",,9879,1032984446
King Edward Point,King Edward Point,-54.2833,-36.5000,South Georgia And South Sandwich Islands,GS,SGS,,primary,,1239048838
Grytviken,Grytviken,-54.2806,-36.5080,South Georgia and South Sandwich Islands,GS,SGS,,,99,1239048837
Río Grande,Rio Grande,-53.7833,-67.7000,Argentina,AR,ARG,"Tierra del Fuego, Antártida e Islas del Atlántico Sur",minor,98017,1032824067
Punta Arenas,Punta Arenas,-53.1667,-70.9333,Chile,CL,CHL,Magallanes y de la Antártica Chilena,admin,123403,1152262933
Puerto Natales,Puerto Natales,-51.7333,-72.5167,Chile,CL,CHL,Magallanes y de la Antártica Chilena,minor,21477,1152225106
Stanley,Stanley,-51.7000,-57.8500,Falkland Islands (Islas Malvinas),FK,FLK,,primary,2213,1238780509
Veintiocho de Noviembre,Veintiocho de Noviembre,-51.6500,-72.3000,Argentina,AR,ARG,Santa Cruz,,6145,1032715340
Río Gallegos,Rio Gallegos,-51.6233,-69.2161,Argentina,AR,ARG,Santa Cruz,admin,95796,1032471024
Yacimiento Río Turbio,Yacimiento Rio Turbio,-51.5333,-72.3000,Argentina,AR,ARG,Santa Cruz,,8814,1032704902
El Calafate,El Calafate,-50.3378,-72.2600,Argentina,AR,ARG,Santa Cruz,minor,25172,1032210475
Comandante Luis Piedra Buena,Comandante Luis Piedra Buena,-49.9830,-68.9100,Argentina,AR,ARG,Santa Cruz,,6405,1032946044
San Julián,San Julian,-49.3000,-67.7167,Argentina,AR,ARG,Santa Cruz,minor,7894,1032464702
Gobernador Gregores,Gobernador Gregores,-48.7667,-70.2500,Argentina,AR,ARG,Santa Cruz,minor,4497,1032720049
Villa O’Higgins,Villa O'Higgins,-48.4683,-72.5600,Chile,CL,CHL,Aysén,,612,1152709181
Puerto Deseado,Puerto Deseado,-47.7500,-65.9167,Argentina,AR,ARG,Santa Cruz,minor,14183,1032537209
Cochrane,Cochrane,-47.2547,-72.5750,Chile,CL,CHL,Aysén,minor,2789,1152054657
Halfmoon Bay,Halfmoon Bay,-46.9000,168.1333,New Zealand,NZ,NZL,Southland,,300,1554077152
Pico Truncado,Pico Truncado,-46.7950,-67.9550,Argentina,AR,ARG,Santa Cruz,,20889,1032509324
Perito Moreno,Perito Moreno,-46.5886,-70.9242,Argentina,AR,ARG,Santa Cruz,minor,4617,1032891854
Las Heras,Las Heras,-46.5500,-68.9500,Argentina,AR,ARG,Santa Cruz,,17821,1032657206
Caleta Olivia,Caleta Olivia,-46.4333,-67.5333,Argentina,AR,ARG,Santa Cruz,,51733,1032563209
Invercargill,Invercargill,-46.4131,168.3475,New Zealand,NZ,NZL,Southland,admin,47625,1554148942
Glencoe,Glencoe,-46.1833,168.6833,New Zealand,NZ,NZL,Southland,,9750,1554979133
Rada Tilly,Rada Tilly,-45.9333,-67.5333,Argentina,AR,ARG,Chubut,,9098,1032850983
Mosgiel,Mosgiel,-45.8750,170.3486,New Zealand,NZ,NZL,Otago,,13400,1554341062
Dunedin,Dunedin,-45.8742,170.5036,New Zealand,NZ,NZL,Otago,admin,99885,1554475997
Comodoro Rivadavia,Comodoro Rivadavia,-45.8647,-67.4808,Argentina,AR,ARG,Chubut,minor,730266,1032042035
Río Mayo,Rio Mayo,-45.6869,-70.2600,Argentina,AR,ARG,Chubut,,2791,1032155044
Sarmiento,Sarmiento,-45.6000,-69.0833,Argentina,AR,ARG,Chubut,minor,10858,1032479340
Coyhaique,Coyhaique,-45.5667,-72.0667,Chile,CL,CHL,Aysén,admin,61210,1152541137
Te Anau,Te Anau,-45.4167,167.7167,New Zealand,NZ,NZL,Southland,,2250,1554603580
Puerto Aysén,Puerto Aysen,-45.4000,-72.6833,Chile,CL,CHL,Aysén,minor,17441,1152158570
Alto Río Senguer,Alto Rio Senguer,-45.0167,-70.8167,Argentina,AR,ARG,Chubut,minor,1570,1032532362
Macetown,Macetown,-44.8667,168.8333,New Zealand,NZ,NZL,Otago,,16600,1554582165
Wanaka,Wanaka,-44.7000,169.1500,New Zealand,NZ,NZL,Otago,,8900,1554152950
Timaru,Timaru,-44.3931,171.2508,New Zealand,NZ,NZL,Canterbury,,27501,1554243304
Ashton,Ashton,-44.0333,171.7667,New Zealand,NZ,NZL,Canterbury,,17700,1554784264
Waitangi,Waitangi,-43.9514,-176.5611,New Zealand,NZ,NZL,Chatham Islands,admin,2018,1554847194
Rolleston,Rolleston,-43.5833,172.3833,New Zealand,NZ,NZL,Canterbury,,16350,1554176166
Christchurch,Christchurch,-43.5310,172.6365,New Zealand,NZ,NZL,Canterbury,admin,383200,1554377228
Kairaki,Kairaki,-43.3860,172.7030,New Zealand,NZ,NZL,Canterbury,,225,1554001309
Rawson,Rawson,-43.3000,-65.1000,Argentina,AR,ARG,Chubut,admin,24616,1032302344
Trelew,Trelew,-43.2500,-65.3000,Argentina,AR,ARG,Chubut,,97915,1032440034
Quellón,Quellon,-43.0992,-73.5961,Chile,CL,CHL,Los Lagos,,23992,1152502358
Kingston,Kingston,-42.9769,147.3083,Australia,AU,AUS,Tasmania,,10409,1036297213
Esquel,Esquel,-42.9000,-71.3167,Argentina,AR,ARG,Chubut,minor,36687,1032489067
Hobart,Hobart,-42.8806,147.3250,Australia,AU,AUS,Tasmania,admin,197451,1036679838
Puerto Madryn,Puerto Madryn,-42.7667,-65.0500,Argentina,AR,ARG,Chubut,minor,115353,1032351657
Hokitika,Hokitika,-42.7156,170.9681,New Zealand,NZ,NZL,West Coast,,2892,1554205461
Chonchi,Chonchi,-42.6219,-73.7742,Chile,CL,CHL,Los Lagos,,5632,1152428145
Castro,Castro,-42.4667,-73.8000,Chile,CL,CHL,Los Lagos,minor,33417,1152445107
Greymouth,Greymouth,-42.4500,171.2075,New Zealand,NZ,NZL,West Coast,admin,7965,1554984303
Kaikoura,Kaikoura,-42.4000,173.6800,New Zealand,NZ,NZL,Canterbury,,2210,1554578431
Telsen,Telsen,-42.3833,-66.9500,Argentina,AR,ARG,Chubut,minor,544,1032824407
Oatlands,Oatlands,-42.3000,147.3706,Australia,AU,AUS,Tasmania,,562,1036926323
Gastre,Gastre,-42.2667,-69.2167,Argentina,AR,ARG,Chubut,minor,602,1032815504
Hualaihué,Hualaihue,-42.1000,-72.4167,Chile,CL,CHL,Los Lagos,,8720,1152075609
Queenstown,Queenstown,-42.0806,145.5556,Australia,AU,AUS,Tasmania,,1772,1036082142
El Maitén,El Maiten,-42.0500,-71.1667,Argentina,AR,ARG,Chubut,,4011,1032286116
El Bolsón,El Bolson,-41.9667,-71.5333,Argentina,AR,ARG,Río Negro,,19009,1032652182
Ancud,Ancud,-41.8667,-73.8333,Chile,CL,CHL,Los Lagos,,38991,1152760614
Bicheno,Bicheno,-41.8667,148.2833,Australia,AU,AUS,Tasmania,,797,1036189642
Calbuco,Calbuco,-41.7667,-73.1333,Chile,CL,CHL,Los Lagos,,15903,1152875669
Westport,Westport,-41.7581,171.6022,New Zealand,NZ,NZL,West Coast,,4660,1554650685
Maullín,Maullin,-41.6167,-73.6000,Chile,CL,CHL,Los Lagos,,15580,1152172124
Blenheim,Blenheim,-41.5140,173.9600,New Zealand,NZ,NZL,Marlborough,admin,26400,1554001426
Puerto Montt,Puerto Montt,-41.4667,-72.9333,Chile,CL,CHL,Los Lagos,admin,169736,1152443957
Launceston,Launceston,-41.4419,147.1450,Australia,AU,AUS,Tasmania,,80943,1036170383
Los Muermos,Los Muermos,-41.4000,-73.4833,Chile,CL,CHL,Los Lagos,,16132,1152894778
Alerce,Alerce,-41.4000,-72.9333,Chile,CL,CHL,Los Lagos,,42267,1152663651
Richmond,Richmond,-41.3333,173.1833,New Zealand,NZ,NZL,Tasman,admin,15000,1554001427
Puerto Varas,Puerto Varas,-41.3167,-72.9833,Chile,CL,CHL,Los Lagos,,26172,1152560692
Ingeniero Jacobacci,Ingeniero Jacobacci,-41.3000,-69.5833,Argentina,AR,ARG,Río Negro,,6261,1032402027
Wellington,Wellington,-41.2889,174.7772,New Zealand,NZ,NZL,Wellington,primary,216200,1554772152
Nelson,Nelson,-41.2708,173.2839,New Zealand,NZ,NZL,Nelson,admin,46437,1554017097
Llanquihue,Llanquihue,-41.2581,-73.0086,Chile,CL,CHL,Los Lagos,,16249,1152498352
Lower Hutt,Lower Hutt,-41.2167,174.9167,New Zealand,NZ,NZL,Wellington,,103400,1554623632
Devonport,Devonport,-41.1800,146.3503,Australia,AU,AUS,Tasmania,,23046,1036033175
Scottsdale,Scottsdale,-41.1667,147.5167,Australia,AU,AUS,Tasmania,,1979,1036807079
San Carlos de Bariloche,San Carlos de Bariloche,-41.1500,-71.3000,Argentina,AR,ARG,Río Negro,minor,112887,1032111842
Porirua,Porirua,-41.1333,174.8500,New Zealand,NZ,NZL,Wellington,,55218,1554561880
Upper Hutt,Upper Hutt,-41.1333,175.0500,New Zealand,NZ,NZL,Wellington,,41000,1554000042
Los Bajos,Los Bajos,-41.1228,-73.0581,Chile,CL,CHL,Los Lagos,,19400,1152911033
Frutillar,Frutillar,-41.1228,-73.0581,Chile,CL,CHL,Los Lagos,,12876,1152151773
Frutillar Alto,Frutillar Alto,-41.0872,-73.0956,Chile,CL,CHL,Los Lagos,,19400,1152452605
Burnie,Burnie,-41.0636,145.8753,Australia,AU,AUS,Tasmania,,19918,1036394657
Comallo,Comallo,-41.0333,-70.2667,Argentina,AR,ARG,Río Negro,,741,1032806030
Masterton,Masterton,-40.9700,175.6500,New Zealand,NZ,NZL,Wellington,,19818,1554641049
Puerto Octay,Puerto Octay,-40.9667,-72.9000,Chile,CL,CHL,Los Lagos,,8999,1152604525
Purranque,Purranque,-40.9167,-73.1667,Chile,CL,CHL,Los Lagos,,20949,1152468662
Paraparaumu,Paraparaumu,-40.9144,175.0056,New Zealand,NZ,NZL,Wellington,,28701,1554166459
Paraparaumu Beach,Paraparaumu Beach,-40.8938,174.9794,New Zealand,NZ,NZL,Wellington,,9087,1554306968
Waikanae,Waikanae,-40.8750,175.0639,New Zealand,NZ,NZL,Wellington,,12100,1554624715
Smithton,Smithton,-40.8417,145.1250,Australia,AU,AUS,Tasmania,,3282,1036207188
Viedma,Viedma,-40.8000,-63.0000,Argentina,AR,ARG,Río Negro,admin,62000,1032613063
Río Negro,Rio Negro,-40.7833,-73.2000,Chile,CL,CHL,Los Lagos,,14732,1152537804
Carmen de Patagones,Carmen de Patagones,-40.7833,-62.9667,Argentina,AR,ARG,Buenos Aires,minor,20533,1032352587
Villa La Angostura,Villa La Angostura,-40.7625,-71.6463,Argentina,AR,ARG,Neuquén,minor,11063,1032303492
San Antonio Oeste,San Antonio Oeste,-40.7333,-64.9500,Argentina,AR,ARG,Río Negro,minor,16265,1032154473
Puyehue,Puyehue,-40.6833,-72.6000,Chile,CL,CHL,Los Lagos,,11368,1152232411
Levin,Levin,-40.6219,175.2867,New Zealand,NZ,NZL,Manawatu-Wanganui,,17670,1554983635
Sierra Colorada,Sierra Colorada,-40.5833,-67.8000,Argentina,AR,ARG,Río Negro,minor,1542,1032417224
Osorno,Osorno,-40.5725,-73.1353,Chile,CL,CHL,Los Lagos,minor,160000,1152866014
San Juan de la Costa,San Juan de la Costa,-40.5167,-73.4000,Chile,CL,CHL,Los Lagos,,8831,1152249782
San Pablo,San Pablo,-40.4000,-73.0167,Chile,CL,CHL,Los Lagos,,10162,1152590185
Palmerston North,Palmerston North,-40.3550,175.6117,New Zealand,NZ,NZL,Manawatu-Wanganui,admin,76236,1554138183
Río Bueno,Rio Bueno,-40.3167,-72.9667,Chile,CL,CHL,Los Ríos,,16909,1152938619
Lago Ranco,Lago Ranco,-40.3167,-72.5000,Chile,CL,CHL,Los Ríos,,9575,1152909758
La Unión,La Union,-40.2833,-73.0833,Chile,CL,CHL,Los Ríos,minor,26517,1152649834
Feilding,Feilding,-40.2167,175.5667,New Zealand,NZ,NZL,Manawatu-Wanganui,,17800,1554000257
San Martín de los Andes,San Martin de los Andes,-40.1667,-71.3500,Argentina,AR,ARG,Neuquén,minor,27956,1032807074
Futrono,Futrono,-40.1333,-72.4000,Chile,CL,CHL,Los Ríos,,13736,1152738108
General Conesa,General Conesa,-40.1000,-64.4167,Argentina,AR,ARG,Río Negro,minor,5484,1032658385
Paillaco,Paillaco,-40.0667,-72.8833,Chile,CL,CHL,Los Ríos,,19088,1152131985
Whanganui,Whanganui,-39.9325,175.0519,New Zealand,NZ,NZL,Manawatu-Wanganui,,39400,1554827998
Junín de los Andes,Junin de los Andes,-39.9167,-71.0667,Argentina,AR,ARG,Neuquén,minor,12621,1032993092
Villalonga,Villalonga,-39.8829,-62.5833,Argentina,AR,ARG,Buenos Aires,,2838,1032282782
Los Lagos,Los Lagos,-39.8500,-72.8333,Chile,CL,CHL,Los Ríos,,18733,1152340454
Valdivia,Valdivia,-39.8139,-73.2458,Chile,CL,CHL,Los Ríos,admin,150048,1152201132
Havelock North,Havelock North,-39.6667,176.8833,New Zealand,NZ,NZL,Hawke’s Bay,,13950,1554193593
Panguipulli,Panguipulli,-39.6444,-72.3306,Chile,CL,CHL,Araucanía,,11091,1152158717
Hawera,Hawera,-39.5933,174.2783,New Zealand,NZ,NZL,Taranaki,,9792,1554872573
Pedro Luro,Pedro Luro,-39.5000,-62.6833,Argentina,AR,ARG,Buenos Aires,,9494,1032549913
Napier,Napier,-39.4903,176.9178,New Zealand,NZ,NZL,Hawke’s Bay,admin,62241,1554064936
Lanco,Lanco,-39.4500,-72.7833,Chile,CL,CHL,Araucanía,,8521,1152703909
Loncoche,Loncoche,-39.3667,-72.6333,Chile,CL,CHL,Araucanía,,21458,1152864736
Stratford,Stratford,-39.3333,174.2833,New Zealand,NZ,NZL,Taranaki,admin,5740,1554001293
Pucón,Pucon,-39.2767,-71.9744,Chile,CL,CHL,Araucanía,,28923,1152377330
Villarrica,Villarrica,-39.2667,-72.2167,Chile,CL,CHL,Araucanía,,55478,1152280288
Choele Choel,Choele Choel,-39.2667,-65.6833,Argentina,AR,ARG,Río Negro,minor,10146,1032421959
Toltén,Tolten,-39.2166,-73.2123,Chile,CL,CHL,Araucanía,,2293,1152450943
Nueva Toltén,Nueva Tolten,-39.1786,-73.1656,Chile,CL,CHL,Araucanía,,9776,1152563189
Gorbea,Gorbea,-39.1000,-72.6833,Chile,CL,CHL,Araucanía,,14414,1152299665
Villa Regina,Villa Regina,-39.1000,-67.0667,Argentina,AR,ARG,Río Negro,,30028,1032583314
New Plymouth,New Plymouth,-39.0578,174.0742,New Zealand,NZ,NZL,Taranaki,,57600,1554939405
General Roca,General Roca,-39.0333,-67.5833,Argentina,AR,ARG,Río Negro,minor,160954,1032829704
Teodoro Schmidt,Teodoro Schmidt,-38.9949,-73.0894,Chile,CL,CHL,Araucanía,,15504,1152001741
Río Colorado,Rio Colorado,-38.9908,-64.0958,Argentina,AR,ARG,La Pampa,,11733,1032592194
Turangi,Turangi,-38.9889,175.8083,New Zealand,NZ,NZL,Waikato,,3320,1554981086
Pitrufquén,Pitrufquen,-38.9833,-72.6500,Chile,CL,CHL,Araucanía,,21981,1152964744
Allen,Allen,-38.9667,-67.8333,Argentina,AR,ARG,Río Negro,,22859,1032144191
Freire,Freire,-38.9558,-72.6256,Chile,CL,CHL,Araucanía,,22390,1152013724
Neuquén,Neuquen,-38.9525,-68.0642,Argentina,AR,ARG,Neuquén,admin,231198,1032525768
Plottier,Plottier,-38.9500,-68.2333,Argentina,AR,ARG,Neuquén,,32390,1032684946
Plaza Huincul,Plaza Huincul,-38.9338,-69.1987,Argentina,AR,ARG,Neuquén,,13172,1032678166
Cutral-Có,Cutral-Co,-38.9333,-69.2333,Argentina,AR,ARG,Neuquén,,35465,1032070013
Cipolletti,Cipolletti,-38.9333,-67.9833,Argentina,AR,ARG,Río Negro,,87492,1032662574
Cunco,Cunco,-38.9167,-72.0333,Chile,CL,CHL,Araucanía,,19063,1152535744
Zapala,Zapala,-38.9000,-70.0667,Argentina,AR,ARG,Neuquén,minor,32097,1032365659
Punta Alta,Punta Alta,-38.8800,-62.0750,Argentina,AR,ARG,Buenos Aires,minor,58315,1032629961
Cinco Saltos,Cinco Saltos,-38.8167,-68.0667,Argentina,AR,ARG,Río Negro,,22790,1032470108
Centenario,Centenario,-38.8000,-68.1333,Argentina,AR,ARG,Neuquén,,34421,1032495336
Padre Las Casas,Padre Las Casas,-38.7667,-72.6000,Chile,CL,CHL,Araucanía,,72892,1152058226
Ingeniero White,Ingeniero White,-38.7667,-62.2667,Argentina,AR,ARG,Buenos Aires,,10486,1032437098
Nueva Imperial,Nueva Imperial,-38.7433,-72.9500,Chile,CL,CHL,Araucanía,,31632,1152277064
Temuco,Temuco,-38.7333,-72.6667,Chile,CL,CHL,Araucanía,admin,282415,1152318955
Bahía Blanca,Bahia Blanca,-38.7167,-62.2667,Argentina,AR,ARG,Buenos Aires,minor,301572,1032795766
Carahue,Carahue,-38.7089,-73.1647,Chile,CL,CHL,Araucanía,,25696,1152919462
Coronel Dorrego,Coronel Dorrego,-38.7000,-61.2667,Argentina,AR,ARG,Buenos Aires,minor,11510,1032800825
Taupo,Taupo,-38.6875,176.0694,New Zealand,NZ,NZL,Waikato,,23622,1554654784
Gisborne,Gisborne,-38.6625,178.0178,New Zealand,NZ,NZL,Gisborne,admin,34527,1554359840
Vilcún,Vilcun,-38.6500,-72.2333,Chile,CL,CHL,Araucanía,,22499,1152236518
Wonthaggi,Wonthaggi,-38.6056,145.5917,Australia,AU,AUS,Victoria,,4965,1036415078
Cholchol,Cholchol,-38.6000,-72.8333,Chile,CL,CHL,Araucanía,,10382,1152052150
Las Lajas,Las Lajas,-38.6000,-70.3000,Argentina,AR,ARG,Neuquén,minor,4078,1032092474
Necochea,Necochea,-38.5500,-58.7333,Argentina,AR,ARG,Buenos Aires,minor,90000,1032624527
Lautaro,Lautaro,-38.5167,-72.4500,Chile,CL,CHL,Araucanía,,34268,1152700530
Curacautín,Curacautin,-38.4333,-71.8833,Chile,CL,CHL,Araucanía,,16418,1152761176
Lonquimay,Lonquimay,-38.4333,-71.2333,Chile,CL,CHL,Araucanía,,10251,1152602801
Galvarino,Galvarino,-38.4000,-72.7833,Chile,CL,CHL,Araucanía,,11996,1152385949
Warrnambool,Warrnambool,-38.3833,142.4833,Australia,AU,AUS,Victoria,,29661,1036291219
Tres Arroyos,Tres Arroyos,-38.3667,-60.2667,Argentina,AR,ARG,Buenos Aires,minor,57244,1032291724
Tirúa,Tirua,-38.3414,-73.4911,Chile,CL,CHL,Biobío,,9644,1152214241
Colac,Colac,-38.3403,143.5847,Australia,AU,AUS,Victoria,,9048,1036633113
Portland,Portland,-38.3333,141.6000,Australia,AU,AUS,Victoria,,9712,1036439594
Torquay,Torquay,-38.3333,144.3167,Australia,AU,AUS,Victoria,,13258,1036765457
Miramar,Miramar,-38.2667,-57.8333,Argentina,AR,ARG,Buenos Aires,minor,30100,1032791086
Traiguén,Traiguen,-38.2500,-72.6833,Chile,CL,CHL,Araucanía,,17164,1152501347
Barwon Heads,Barwon Heads,-38.2500,144.5167,Australia,AU,AUS,Victoria,,14165,1036797778
Victoria,Victoria,-38.2333,-72.3333,Chile,CL,CHL,Araucanía,,34890,1152078114
Morwell,Morwell,-38.2333,146.4000,Australia,AU,AUS,Victoria,,13771,1036750619
Somerville,Somerville,-38.2260,145.1770,Australia,AU,AUS,Victoria,,11336,1036275983
Tokoroa,Tokoroa,-38.2167,175.8667,New Zealand,NZ,NZL,Waikato,,13572,1554951529
Traralgon,Traralgon,-38.1958,146.5403,Australia,AU,AUS,Victoria,,24933,1036938861
Leopold,Leopold,-38.1892,144.4644,Australia,AU,AUS,Victoria,,12814,1036263278
Mount Eliza,Mount Eliza,-38.1890,145.0920,Australia,AU,AUS,Victoria,,17888,1036041769
Moe,Moe,-38.1722,146.2678,Australia,AU,AUS,Victoria,,8778,1036922580
Lumaco,Lumaco,-38.1500,-72.9167,Chile,CL,CHL,Araucanía,,11405,1152525115
Geelong,Geelong,-38.1500,144.3500,Australia,AU,AUS,Victoria,,180239,1036870987
Warragul,Warragul,-38.1500,145.9333,Australia,AU,AUS,Victoria,,23051,1036504084
Rotorua,Rotorua,-38.1378,176.2514,New Zealand,NZ,NZL,Bay of Plenty,,54204,1554000379
Lobería,Loberia,-38.1333,-58.7667,Argentina,AR,ARG,Buenos Aires,minor,12199,1032802362
Frankston,Frankston,-38.1333,145.1167,Australia,AU,AUS,Victoria,,36097,1036126828
Drouin,Drouin,-38.1333,145.8500,Australia,AU,AUS,Victoria,,12349,1036564546
Tornquist,Tornquist,-38.1000,-62.2167,Argentina,AR,ARG,Buenos Aires,minor,11759,1032008603
Sale,Sale,-38.1000,147.0667,Australia,AU,AUS,Victoria,,13673,1036960753
Cranbourne,Cranbourne,-38.0996,145.2834,Australia,AU,AUS,Victoria,,460491,1036685862
Pakenham,Pakenham,-38.0712,145.4878,Australia,AU,AUS,Victoria,,46421,1036063031
Adolfo Gonzáles Chaves,Adolfo Gonzales Chaves,-38.0333,-60.0833,Argentina,AR,ARG,Buenos Aires,minor,9437,1032667376
Purén,Puren,-38.0319,-73.0728,Chile,CL,CHL,Araucanía,,12868,1152043737
Lara,Lara,-38.0167,144.4167,Australia,AU,AUS,Victoria,,15772,1036754750
Te Awamutu,Te Awamutu,-38.0167,175.3167,New Zealand,NZ,NZL,Waikato,,12195,1554001222
Batán,Batan,-38.0078,-57.7097,Argentina,AR,ARG,Buenos Aires,,10152,1032360995
Mar del Plata,Mar del Plata,-38.0000,-57.5500,Argentina,AR,ARG,Buenos Aires,minor,682605,1032456103
Dandenong,Dandenong,-37.9810,145.2150,Australia,AU,AUS,Victoria,,29906,1036214023
Whakatane,Whakatane,-37.9600,176.9800,New Zealand,NZ,NZL,Bay of Plenty,admin,15795,1554253729
Collipulli,Collipulli,-37.9500,-72.4333,Chile,CL,CHL,Araucanía,,23321,1152908869
Cambridge,Cambridge,-37.8833,175.4667,New Zealand,NZ,NZL,Waikato,,18651,1554000848
Catriel,Catriel,-37.8667,-67.8333,Argentina,AR,ARG,Río Negro,,47569,1032975217
Balcarce,Balcarce,-37.8456,-58.2578,Argentina,AR,ARG,Buenos Aires,minor,44796,1032847478
Bairnsdale,Bairnsdale,-37.8333,147.6167,Australia,AU,AUS,Victoria,,7580,1036432237
Mount Gambier,Mount Gambier,-37.8294,140.7828,Australia,AU,AUS,South Australia,,25591,1036932780
Melbourne,Melbourne,-37.8142,144.9631,Australia,AU,AUS,Victoria,admin,5031195,1036533631
Angol,Angol,-37.8000,-72.7167,Chile,CL,CHL,Araucanía,minor,48608,1152404762
Cañete,Canete,-37.7994,-73.3953,Chile,CL,CHL,Biobío,,34537,1152180527
Saavedra,Saavedra,-37.7833,-62.3500,Argentina,AR,ARG,Buenos Aires,,19715,1032480049
Hamilton,Hamilton,-37.7833,175.2833,New Zealand,NZ,NZL,Waikato,admin,176500,1554873040
Mount Evelyn,Mount Evelyn,-37.7830,145.3850,Australia,AU,AUS,Victoria,,9702,1036617292
Veinticinco de Mayo,Veinticinco de Mayo,-37.7712,-67.7174,Argentina,AR,ARG,La Pampa,minor,5953,1032912712
Hamilton,Hamilton,-37.7333,142.0167,Australia,AU,AUS,Victoria,,9974,1036699883
Mulchén,Mulchen,-37.7167,-72.2333,Chile,CL,CHL,Biobío,,27557,1152030121
Darregueira,Darregueira,-37.6996,-63.1666,Argentina,AR,ARG,Buenos Aires,,3412,1032968004
Melton,Melton,-37.6833,144.5833,Australia,AU,AUS,Victoria,,76346,1036007778
Tauranga,Tauranga,-37.6833,176.1667,New Zealand,NZ,NZL,Bay of Plenty,,151300,1554759867
Santa Bárbara,Santa Barbara,-37.6706,-72.0214,Chile,CL,CHL,Biobío,,13405,1152827647
Renaico,Renaico,-37.6667,-72.5833,Chile,CL,CHL,Araucanía,,9850,1152989264
Benito Juárez,Benito Juarez,-37.6667,-59.7833,Argentina,AR,ARG,Buenos Aires,minor,14279,1032382110
Los Álamos,Los Alamos,-37.6272,-73.4619,Chile,CL,CHL,Biobío,,19494,1152738427
Pigüé,Pigue,-37.6167,-62.4167,Argentina,AR,ARG,Buenos Aires,minor,13822,1032545605
Lebu,Lebu,-37.6000,-73.6667,Chile,CL,CHL,Biobío,minor,23722,1152064207
Wollert,Wollert,-37.5970,145.0330,Australia,AU,AUS,Victoria,,9060,1036068932
Negrete,Negrete,-37.5833,-72.5333,Chile,CL,CHL,Biobío,,9394,1152930662
Sunbury,Sunbury,-37.5811,144.7139,Australia,AU,AUS,Victoria,,36084,1036519781
Ballarat,Ballarat,-37.5608,143.8475,Australia,AU,AUS,Victoria,,116201,1036567186
Puan,Puan,-37.5500,-62.7667,Argentina,AR,ARG,Buenos Aires,minor,16381,1032047126
Nacimiento,Nacimiento,-37.5000,-72.6667,Chile,CL,CHL,Biobío,,26523,1152525394
Gisborne,Gisborne,-37.4900,144.5889,Australia,AU,AUS,Victoria,,8999,1036388639
Curanilahue,Curanilahue,-37.4764,-73.3444,Chile,CL,CHL,Biobío,,32288,1152226096
Los Ángeles,Los Angeles,-37.4667,-72.3500,Chile,CL,CHL,Biobío,minor,143023,1152810305
Coronel Suárez,Coronel Suarez,-37.4667,-61.9333,Argentina,AR,ARG,Buenos Aires,minor,42276,1032444981
Wallan,Wallan,-37.4167,144.9833,Australia,AU,AUS,Victoria,,15004,1036357414
Chos Malal,Chos Malal,-37.3833,-70.2667,Argentina,AR,ARG,Neuquén,minor,13092,1032817076
General Acha,General Acha,-37.3833,-64.6000,Argentina,AR,ARG,La Pampa,minor,12583,1032754680
Penola,Penola,-37.3786,140.8362,Australia,AU,AUS,South Australia,,1376,1036121853
Tandil,Tandil,-37.3167,-59.1333,Argentina,AR,ARG,Buenos Aires,minor,400,1032075057
Tucapel,Tucapel,-37.2833,-71.9500,Chile,CL,CHL,Biobío,,13427,1152537993
Ararat,Ararat,-37.2833,142.9167,Australia,AU,AUS,Victoria,,7015,1036674088
Laja,Laja,-37.2667,-72.7000,Chile,CL,CHL,Biobío,,22288,1152499154
Arauco,Arauco,-37.2500,-73.3167,Chile,CL,CHL,Biobío,,17597,1152468620
Villa Gesell,Villa Gesell,-37.2500,-56.9833,Argentina,AR,ARG,Buenos Aires,minor,29593,1032960969
Waiuku,Waiuku,-37.2490,174.7300,New Zealand,NZ,NZL,Auckland,,9171,1554334008
Pukekohe East,Pukekohe East,-37.2000,174.9000,New Zealand,NZ,NZL,Auckland,,2018,1554599644
Carhué,Carhue,-37.1796,-62.7601,Argentina,AR,ARG,Buenos Aires,minor,16245,1032595269
Santa Juana,Santa Juana,-37.1660,-72.9330,Chile,CL,CHL,Biobío,,13228,1152335973
Thames,Thames,-37.1383,175.5375,New Zealand,NZ,NZL,Waikato,,7293,1554802053
Yumbel,Yumbel,-37.1333,-72.5333,Chile,CL,CHL,Biobío,,20034,1152526139
Ayacucho,Ayacucho,-37.1333,-58.4667,Argentina,AR,ARG,Buenos Aires,minor,17364,1032171567
Yungay,Yungay,-37.1194,-72.0189,Chile,CL,CHL,Ñuble,,10884,1152990591
Pinamar,Pinamar,-37.1000,-56.8500,Argentina,AR,ARG,Buenos Aires,minor,40259,1032950633
Lota,Lota,-37.0833,-73.1667,Chile,CL,CHL,Biobío,,43272,1152978276
Edinburgh of the Seven Seas,Edinburgh of the Seven Seas,-37.0675,-12.3105,"Saint Helena, Ascension, and Tristan da Cunha",SH,SHN,Tristan da Cunha,admin,,1654661876
Stawell,Stawell,-37.0500,142.7667,Australia,AU,AUS,Victoria,,5627,1036073093
Maryborough,Maryborough,-37.0500,143.7350,Australia,AU,AUS,Victoria,,7769,1036781601
Cabrero,Cabrero,-37.0333,-72.4000,Chile,CL,CHL,Biobío,,27595,1152020950
Seymour,Seymour,-37.0300,145.1300,Australia,AU,AUS,Victoria,,6569,1036919223
Coronel,Coronel,-37.0167,-73.2167,Chile,CL,CHL,Biobío,,116262,1152234834
General Juan Madariaga,General Juan Madariaga,-37.0167,-57.1333,Argentina,AR,ARG,Buenos Aires,minor,18089,1032481870
Manukau City,Manukau City,-37.0000,174.8850,New Zealand,NZ,NZL,Auckland,,375600,1554797148
Hualqui,Hualqui,-36.9600,-72.9300,Chile,CL,CHL,Biobío,,20968,1152533945
Chiguayante,Chiguayante,-36.9167,-73.0167,Chile,CL,CHL,Biobío,,85863,1152693546
Olavarría,Olavarria,-36.9000,-60.3333,Argentina,AR,ARG,Buenos Aires,minor,89721,1032373353
Merimbula,Merimbula,-36.8981,149.9011,Australia,AU,AUS,New South Wales,,3544,1036933197
Maipú,Maipu,-36.8667,-57.8667,Argentina,AR,ARG,Buenos Aires,minor,8865,1032738375
Waitakere,Waitakere,-36.8500,174.5430,New Zealand,NZ,NZL,Auckland,,2018,1554034359
Auckland,Auckland,-36.8406,174.7400,New Zealand,NZ,NZL,Auckland,admin,1346091,1554435911
Concepción,Concepcion,-36.8282,-73.0514,Chile,CL,CHL,Biobío,admin,719944,1152838958
Florida,Florida,-36.8167,-72.6667,Chile,CL,CHL,Biobío,,8916,1152800195
Kingston South East,Kingston South East,-36.8167,139.8500,Australia,AU,AUS,South Australia,,1342,1036261175
Northcote,Northcote,-36.8019,174.7494,New Zealand,NZ,NZL,Auckland,,205605,1554717659
Azul,Azul,-36.7833,-59.8500,Argentina,AR,ARG,Buenos Aires,minor,55728,1032652005
Kangaroo Flat,Kangaroo Flat,-36.7833,144.2333,Australia,AU,AUS,Victoria,,10394,1036769935
Rauch,Rauch,-36.7667,-59.1000,Argentina,AR,ARG,Buenos Aires,minor,14434,1032991663
Bendigo,Bendigo,-36.7500,144.2667,Australia,AU,AUS,Victoria,,103034,1036537913
Huachipato,Huachipato,-36.7481,-73.0986,Chile,CL,CHL,Biobío,,9665,1152109016
Bulnes,Bulnes,-36.7425,-72.2983,Chile,CL,CHL,Ñuble,,20763,1152653950
Penco,Penco,-36.7333,-72.9833,Chile,CL,CHL,Biobío,,47367,1152993969
Mar de Ajó,Mar de Ajo,-36.7203,-56.6878,Argentina,AR,ARG,Buenos Aires,,25520,1032066406
Talcahuano,Talcahuano,-36.7167,-73.1219,Chile,CL,CHL,Biobío,,150499,1152023044
Horsham,Horsham,-36.7167,142.2000,Australia,AU,AUS,Victoria,,15134,1036654340
Pinto,Pinto,-36.7036,-71.8922,Chile,CL,CHL,Ñuble,,10595,1152171336
Chillán Viejo,Chillan Viejo,-36.6239,-72.1358,Chile,CL,CHL,Ñuble,,27359,1152645198
Tomé,Tome,-36.6167,-72.9500,Chile,CL,CHL,Biobío,,42312,1152166653
Santa Rosa,Santa Rosa,-36.6167,-64.2833,Argentina,AR,ARG,La Pampa,admin,102880,1032215828
Chillán,Chillan,-36.6000,-72.1167,Chile,CL,CHL,Ñuble,admin,164270,1152082093
San Javier,San Javier,-36.6000,-71.7500,Chile,CL,CHL,Maule,,29017,1152644283
Daireaux,Daireaux,-36.6000,-61.7500,Argentina,AR,ARG,Buenos Aires,minor,16804,1032067440
Benalla,Benalla,-36.5519,145.9817,Australia,AU,AUS,Victoria,,10330,1036934047
San Nicolás,San Nicolas,-36.5033,-72.2122,Chile,CL,CHL,Ñuble,,10631,1152083085
Coelemu,Coelemu,-36.4878,-72.7028,Chile,CL,CHL,Ñuble,,15711,1152096905
Shepparton,Shepparton,-36.3833,145.4000,Australia,AU,AUS,Victoria,,31197,1036030548
Wangaratta,Wangaratta,-36.3583,146.3125,Australia,AU,AUS,Victoria,,17377,1036395326
Dolores,Dolores,-36.3167,-57.6667,Argentina,AR,ARG,Buenos Aires,minor,25940,1032650497
Bordertown,Bordertown,-36.3118,140.7702,Australia,AU,AUS,South Australia,,2840,1036115980
Ñiquén,Niquen,-36.3000,-71.9000,Chile,CL,CHL,Ñuble,,10759,1152179399
Chanco,Chanco,-36.2859,-72.7107,Chile,CL,CHL,Ñuble,,9003,1152038330
Quirihue,Quirihue,-36.2833,-72.5333,Chile,CL,CHL,Ñuble,,12562,1152146130
Henderson,Henderson,-36.2833,-61.7167,Argentina,AR,ARG,Buenos Aires,minor,9585,1032715747
Chanco,Chanco,-36.2667,-72.7167,Chile,CL,CHL,Maule,,9003,1152434517
Cooma,Cooma,-36.2350,149.1258,Australia,AU,AUS,New South Wales,,6447,1036070931
Victorica,Victorica,-36.2167,-65.4500,Argentina,AR,ARG,La Pampa,minor,4458,1032392251
Parral,Parral,-36.1500,-71.8333,Chile,CL,CHL,Maule,,39404,1152767087
Echuca,Echuca,-36.1333,144.7500,Australia,AU,AUS,Victoria,,15056,1036292989
Wodonga,Wodonga,-36.1214,146.8881,Australia,AU,AUS,Victoria,,20259,1036788540
Albury,Albury,-36.0806,146.9158,Australia,AU,AUS,New South Wales,,4804,1036076542
Retiro,Retiro,-36.0333,-71.7667,Chile,CL,CHL,Maule,,18754,1152001329
General Alvear,General Alvear,-36.0333,-60.0167,Argentina,AR,ARG,Buenos Aires,minor,9812,1032075005
Las Flores,Las Flores,-36.0139,-59.1000,Argentina,AR,ARG,Buenos Aires,minor,26651,1032178626
Cauquenes,Cauquenes,-35.9667,-72.3500,Chile,CL,CHL,Maule,minor,45,1152787999
Longaví,Longavi,-35.9667,-71.6833,Chile,CL,CHL,Maule,,28499,1152122275
Trenque Lauquen,Trenque Lauquen,-35.9667,-62.7000,Argentina,AR,ARG,Buenos Aires,minor,46019,1032312344
Cobram,Cobram,-35.9667,145.6500,Australia,AU,AUS,Victoria,,5389,1036438159
Linares,Linares,-35.8500,-71.6000,Chile,CL,CHL,Maule,minor,73602,1152783281
Pehuajó,Pehuajo,-35.8000,-61.9000,Argentina,AR,ARG,Buenos Aires,minor,31553,1032681799
General Belgrano,General Belgrano,-35.7667,-58.5000,Argentina,AR,ARG,Buenos Aires,minor,13516,1032451126
Yerbas Buenas,Yerbas Buenas,-35.7500,-71.5667,Chile,CL,CHL,Maule,,16738,1152448482
Whangarei,Whangarei,-35.7250,174.3236,New Zealand,NZ,NZL,Northland,admin,50784,1554000636
Batemans Bay,Batemans Bay,-35.7081,150.1744,Australia,AU,AUS,New South Wales,,11294,1036272805
Colbún,Colbun,-35.7000,-71.4167,Chile,CL,CHL,Maule,,17619,1152103340
Meningie,Meningie,-35.6883,139.3378,Australia,AU,AUS,South Australia,,860,1036445634
Villa Alegre,Villa Alegre,-35.6667,-71.7500,Chile,CL,CHL,Maule,,14695,1152729852
General Pico,General Pico,-35.6667,-63.7333,Argentina,AR,ARG,La Pampa,minor,57669,1032081531
Carlos Casares,Carlos Casares,-35.6167,-61.3667,Argentina,AR,ARG,Buenos Aires,minor,21125,1032627170
Chascomús,Chascomus,-35.5750,-58.0089,Argentina,AR,ARG,Buenos Aires,minor,33607,1032352363
San Clemente,San Clemente,-35.5500,-71.4833,Chile,CL,CHL,Maule,,43269,1152025924
Victor Harbor,Victor Harbor,-35.5500,138.6167,Australia,AU,AUS,South Australia,,4233,1036536547
Maule,Maule,-35.5333,-71.7000,Chile,CL,CHL,Maule,,38270,1152958152
Ranchos,Ranchos,-35.5333,-58.2833,Argentina,AR,ARG,Buenos Aires,minor,10319,1032900270
Deniliquin,Deniliquin,-35.5333,144.9667,Australia,AU,AUS,New South Wales,,6431,1036325219
Malargüe,Malargue,-35.4750,-69.5833,Argentina,AR,ARG,Mendoza,minor,27660,1032824937
Nueve de Julio,Nueve de Julio,-35.4500,-60.8833,Argentina,AR,ARG,Buenos Aires,minor,36494,1032287957
Talca,Talca,-35.4269,-71.6656,Chile,CL,CHL,Maule,admin,206069,1152736946
Veinticinco de Mayo,Veinticinco de Mayo,-35.4167,-60.1667,Argentina,AR,ARG,Buenos Aires,minor,23408,1032801782
Roque Pérez,Roque Perez,-35.4167,-59.3167,Argentina,AR,ARG,Buenos Aires,minor,10902,1032986084
Queanbeyan,Queanbeyan,-35.3533,149.2342,Australia,AU,AUS,New South Wales,,6237,1036846465
Ulladulla,Ulladulla,-35.3486,150.4678,Australia,AU,AUS,New South Wales,,15278,1036687220
Constitución,Constitucion,-35.3333,-72.4167,Chile,CL,CHL,Maule,,41207,1152065066
Swan Hill,Swan Hill,-35.3333,143.5500,Australia,AU,AUS,Victoria,,9864,1036220501
Tumut,Tumut,-35.3047,148.2228,Australia,AU,AUS,New South Wales,,6230,1036777587
Canberra,Canberra,-35.2931,149.1269,Australia,AU,AUS,Australian Capital Territory,primary,381488,1036142029
Punta Indio,Punta Indio,-35.2667,-57.2167,Argentina,AR,ARG,Buenos Aires,,9362,1032758065
Kerikeri,Kerikeri,-35.2244,173.9514,New Zealand,NZ,NZL,Northland,,6960,1554530676
Lobos,Lobos,-35.1833,-59.0833,Argentina,AR,ARG,Buenos Aires,minor,31190,1032314483
Brandsen,Brandsen,-35.1667,-58.2167,Argentina,AR,ARG,Buenos Aires,minor,19877,1032251860
Wagga Wagga,Wagga Wagga,-35.1189,147.3689,Australia,AU,AUS,New South Wales,,49686,1036273188
Murray Bridge,Murray Bridge,-35.1170,139.2670,Australia,AU,AUS,South Australia,,15043,1036345943
Bragado,Bragado,-35.1167,-60.5000,Argentina,AR,ARG,Buenos Aires,minor,33222,1032509795
Molina,Molina,-35.1144,-71.2825,Chile,CL,CHL,Maule,,40329,1152236505
Kaitaia,Kaitaia,-35.1125,173.2628,New Zealand,NZ,NZL,Northland,,5868,1554000934
Curepto,Curepto,-35.0833,-72.0167,Chile,CL,CHL,Maule,,9380,1152721174
Magdalena,Magdalena,-35.0833,-57.5167,Argentina,AR,ARG,Buenos Aires,minor,9294,1032068018
Mount Barker,Mount Barker,-35.0667,138.8500,Australia,AU,AUS,South Australia,,13842,1036530325
Ouyen,Ouyen,-35.0667,142.3167,Australia,AU,AUS,Victoria,,1022,1036764173
General Villegas,General Villegas,-35.0333,-63.0167,Argentina,AR,ARG,Buenos Aires,minor,16270,1032883098
Cañuelas,Canuelas,-35.0333,-58.7333,Argentina,AR,ARG,Buenos Aires,minor,31901,1032954479
Albany,Albany,-35.0228,117.8814,Australia,AU,AUS,Western Australia,,25196,1036047365
Navarro,Navarro,-35.0167,-59.2667,Argentina,AR,ARG,Buenos Aires,minor,11562,1032226525
San Vicente,San Vicente,-35.0167,-58.4167,Argentina,AR,ARG,Buenos Aires,minor,44529,1032278022
Sagrada Familia,Sagrada Familia,-35.0000,-71.3833,Chile,CL,CHL,Maule,,17569,1152799480
General Viamonte,General Viamonte,-35.0000,-61.0333,Argentina,AR,ARG,Buenos Aires,minor,13462,1032695621
Curicó,Curico,-34.9833,-71.2333,Chile,CL,CHL,Maule,minor,136954,1152564798
Hualañe,Hualane,-34.9765,-71.8048,Chile,CL,CHL,Maule,,9303,1152879287
General Alvear,General Alvear,-34.9667,-67.7000,Argentina,AR,ARG,Mendoza,minor,29909,1032632724
Alejandro Korn,Alejandro Korn,-34.9667,-58.3667,Argentina,AR,ARG,Buenos Aires,,21407,1032420273
Punta del Este,Punta del Este,-34.9667,-54.9500,Uruguay,UY,URY,Maldonado,,9277,1858267433
Melchor Romero,Melchor Romero,-34.9492,-58.0472,Argentina,AR,ARG,Buenos Aires,,22511,1032196678
Bellavista,Bellavista,-34.9333,-71.3167,Chile,CL,CHL,Maule,,15187,1152249017
General Las Heras,General Las Heras,-34.9333,-58.9500,Argentina,AR,ARG,Buenos Aires,minor,12799,1032789819
Adelaide,Adelaide,-34.9275,138.6000,Australia,AU,AUS,South Australia,admin,1295714,1036538171
La Plata,La Plata,-34.9211,-57.9544,Argentina,AR,ARG,Buenos Aires,admin,193144,1032403831
Rauco,Rauco,-34.9167,-71.3167,Chile,CL,CHL,Maule,,9543,1152798030
Guernica,Guernica,-34.9167,-58.3833,Argentina,AR,ARG,Buenos Aires,minor,52529,1032422310
Chivilcoy,Chivilcoy,-34.9000,-60.0167,Argentina,AR,ARG,Buenos Aires,minor,58152,1032269915
Piriápolis,Piriapolis,-34.9000,-55.2833,Uruguay,UY,URY,Maldonado,,8830,1858127354
Maldonado,Maldonado,-34.9000,-54.9500,Uruguay,UY,URY,Maldonado,admin,135014,1858958595
Tolosa,Tolosa,-34.8942,-57.9647,Argentina,AR,ARG,Buenos Aires,,41705,1032033816
Montevideo,Montevideo,-34.8836,-56.1819,Uruguay,UY,URY,Montevideo,primary,1719453,1858107000
Carlos Spegazzini,Carlos Spegazzini,-34.8833,-58.5667,Argentina,AR,ARG,Buenos Aires,,18820,1032807626
Glew,Glew,-34.8833,-58.3833,Argentina,AR,ARG,Buenos Aires,,57878,1032691083
Nowra,Nowra,-34.8808,150.6075,Australia,AU,AUS,New South Wales,,9193,1036984536
Berisso,Berisso,-34.8728,-57.8858,Argentina,AR,ARG,Buenos Aires,minor,88470,1032298172
Paso de Carrasco,Paso de Carrasco,-34.8714,-56.0272,Uruguay,UY,URY,Canelones,,15908,1858805647
Teno,Teno,-34.8667,-71.1833,Chile,CL,CHL,Maule,,27532,1152981256
Ensenada Berisso,Ensenada Berisso,-34.8667,-57.9000,Argentina,AR,ARG,Buenos Aires,,51448,1032233844
Ensenada,Ensenada,-34.8644,-57.9103,Argentina,AR,ARG,Buenos Aires,minor,54463,1032568012
Villa Elisa,Villa Elisa,-34.8533,-58.0792,Argentina,AR,ARG,Buenos Aires,,19643,1032522671
Lincoln,Lincoln,-34.8500,-61.5167,Argentina,AR,ARG,Buenos Aires,minor,28051,1032332688
Longchamps,Longchamps,-34.8500,-58.3833,Argentina,AR,ARG,Buenos Aires,,47622,1032203390
City Bell,City Bell,-34.8500,-58.0500,Argentina,AR,ARG,Buenos Aires,,32646,1032568432
Manuel B. Gonnet,Manuel B. Gonnet,-34.8500,-58.0167,Argentina,AR,ARG,Buenos Aires,,22963,1032782726
Huinca Renancó,Huinca Renanco,-34.8333,-64.3833,Argentina,AR,ARG,Córdoba,,9426,1032637133
José María Ezeiza,Jose Maria Ezeiza,-34.8333,-58.5167,Argentina,AR,ARG,Buenos Aires,minor,160219,1032337881
Esteban Echeverría,Esteban Echeverria,-34.8167,-58.4667,Argentina,AR,ARG,Buenos Aires,minor,109644,1032069640
Burzaco,Burzaco,-34.8167,-58.3667,Argentina,AR,ARG,Buenos Aires,,98859,1032073218
Florencio Varela,Florencio Varela,-34.8167,-58.2833,Argentina,AR,ARG,Buenos Aires,minor,146704,1032021324
Colonia Nicolich,Colonia Nicolich,-34.8167,-56.0167,Uruguay,UY,URY,Canelones,,9624,1858537250
Ciudad de la Costa,Ciudad de la Costa,-34.8167,-55.9500,Uruguay,UY,URY,Canelones,,112449,1858042396
Adrogue,Adrogue,-34.8000,-58.3833,Argentina,AR,ARG,Buenos Aires,,28265,1032827397
Claypole,Claypole,-34.8000,-58.3333,Argentina,AR,ARG,Buenos Aires,,41176,1032211279
San Carlos,San Carlos,-34.8000,-54.9167,Uruguay,UY,URY,Maldonado,,27471,1858085265
El Pinar,El Pinar,-34.7972,-55.9097,Uruguay,UY,URY,Canelones,,21091,1858554922
Rafael Calzada,Rafael Calzada,-34.7833,-58.3667,Argentina,AR,ARG,Buenos Aires,,56419,1032898708
José Mármol,Jose Marmol,-34.7833,-58.3667,Argentina,AR,ARG,Buenos Aires,,41109,1032126414
Salinas,Salinas,-34.7833,-55.8333,Uruguay,UY,URY,Canelones,,8626,1858193593
Marcos Paz,Marcos Paz,-34.7667,-58.8333,Argentina,AR,ARG,Buenos Aires,minor,39151,1032271998
González Catán,Gonzalez Catan,-34.7667,-58.6167,Argentina,AR,ARG,Buenos Aires,,238067,1032883563
Lomas de Zamora,Lomas de Zamora,-34.7667,-58.4000,Argentina,AR,ARG,Buenos Aires,minor,112580,1032623086
Temperley,Temperley,-34.7667,-58.3833,Argentina,AR,ARG,Buenos Aires,,121451,1032183944
Llavallol,Llavallol,-34.7667,-58.3833,Argentina,AR,ARG,Buenos Aires,,41463,1032288016
San Francisco Solano,San Francisco Solano,-34.7667,-58.3167,Argentina,AR,ARG,Buenos Aires,,91322,1032776804
Ciudad del Plata,Ciudad del Plata,-34.7667,-56.3806,Uruguay,UY,URY,San José,,31145,1858720449
La Paz,La Paz,-34.7617,-56.2233,Uruguay,UY,URY,Canelones,,20524,1858113046
Goulburn,Goulburn,-34.7547,149.6186,Australia,AU,AUS,New South Wales,,22419,1036347537
Barros Blancos,Barros Blancos,-34.7542,-56.0042,Uruguay,UY,URY,Canelones,,31650,1858612587
Ezpeleta,Ezpeleta,-34.7517,-58.2344,Argentina,AR,ARG,Buenos Aires,,79557,1032462589
Banfield,Banfield,-34.7500,-58.3833,Argentina,AR,ARG,Buenos Aires,,223898,1032997685
Chépica,Chepica,-34.7333,-71.2833,Chile,CL,CHL,Libertador General Bernardo O’Higgins,,15037,1152611232
Monte Chingolo,Monte Chingolo,-34.7333,-58.3500,Argentina,AR,ARG,Buenos Aires,,85060,1032641177
Port Lincoln,Port Lincoln,-34.7322,135.8586,Australia,AU,AUS,South Australia,,14120,1036558150
Mariano Acosta,Mariano Acosta,-34.7167,-58.7833,Argentina,AR,ARG,Buenos Aires,,54081,1032455258
Rafael Castillo,Rafael Castillo,-34.7167,-58.6167,Argentina,AR,ARG,Buenos Aires,,147965,1032812310
Ciudad General Belgrano,Ciudad General Belgrano,-34.7167,-58.5333,Argentina,AR,ARG,Buenos Aires,,92957,1032336348
Villa Celina,Villa Celina,-34.7167,-58.4833,Argentina,AR,ARG,"Buenos Aires, Ciudad Autónoma de",,78699,1032320584
Remedios de Escalada,Remedios de Escalada,-34.7167,-58.4000,Argentina,AR,ARG,Buenos Aires,,81465,1032150292
Quilmes,Quilmes,-34.7167,-58.2667,Argentina,AR,ARG,Buenos Aires,minor,262379,1032880202
Berazategui,Berazategui,-34.7167,-58.2500,Argentina,AR,ARG,Buenos Aires,minor,180523,1032535314
Las Piedras,Las Piedras,-34.7167,-56.2167,Uruguay,UY,URY,Canelones,,71268,1858563314
Pando,Pando,-34.7167,-55.9583,Uruguay,UY,URY,Canelones,,25949,1858276269
Chimbarongo,Chimbarongo,-34.7089,-71.0431,Chile,CL,CHL,Libertador General Bernardo O’Higgins,,33446,1152212161
Aldo Bonzi,Aldo Bonzi,-34.7083,-58.5181,Argentina,AR,ARG,Buenos Aires,,18175,1032281187
Tapiales,Tapiales,-34.7058,-58.5047,Argentina,AR,ARG,Buenos Aires,,23586,1032831289
Isidro Casanova,Isidro Casanova,-34.7000,-58.5833,Argentina,AR,ARG,Buenos Aires,,190696,1032715964
Lanús,Lanus,-34.7000,-58.4000,Argentina,AR,ARG,Buenos Aires,minor,459263,1032009573
Wilde,Wilde,-34.7000,-58.3167,Argentina,AR,ARG,Buenos Aires,,65881,1032256650
Bernal,Bernal,-34.7000,-58.2833,Argentina,AR,ARG,Buenos Aires,,109914,1032030395
Don Bosco,Don Bosco,-34.7000,-58.2833,Argentina,AR,ARG,Buenos Aires,,20876,1032701626
Villa Domínico,Villa Dominico,-34.6917,-58.3333,Argentina,AR,ARG,Buenos Aires,,62315,1032866743
Libertad,Libertad,-34.6833,-58.6833,Argentina,AR,ARG,Buenos Aires,,100324,1032241314
San Justo,San Justo,-34.6833,-58.5500,Argentina,AR,ARG,Buenos Aires,minor,136604,1032899295
Gerli,Gerli,-34.6833,-58.3667,Argentina,AR,ARG,Buenos Aires,,64640,1032212619
Sarandí,Sarandi,-34.6833,-58.3333,Argentina,AR,ARG,Buenos Aires,,60752,1032993271
Kiama,Kiama,-34.6708,150.8542,Australia,AU,AUS,New South Wales,,6881,1036754695
Nancagua,Nancagua,-34.6667,-71.2167,Chile,CL,CHL,Libertador General Bernardo O’Higgins,,15409,1152511353
San Antonio de Padua,San Antonio de Padua,-34.6667,-58.7000,Argentina,AR,ARG,Buenos Aires,,37775,1032305331
Ituzaingó,Ituzaingo,-34.6667,-58.6667,Argentina,AR,ARG,Buenos Aires,minor,135275,1032997137
Castelar,Castelar,-34.6667,-58.6667,Argentina,AR,ARG,Buenos Aires,,107786,1032123891
Lomas del Mirador,Lomas del Mirador,-34.6667,-58.5297,Argentina,AR,ARG,Buenos Aires,,71479,1032639381
Villa Alsina,Villa Alsina,-34.6667,-58.4167,Argentina,AR,ARG,Buenos Aires,,41155,1032506308
Merlo,Merlo,-34.6653,-58.7275,Argentina,AR,ARG,Buenos Aires,minor,244168,1032232613
Progreso,Progreso,-34.6650,-56.2194,Uruguay,UY,URY,Canelones,,16244,1858245447
Avellaneda,Avellaneda,-34.6625,-58.3678,Argentina,AR,ARG,Buenos Aires,minor,31892,1032478683
Villa Luzuriaga,Villa Luzuriaga,-34.6595,-58.5833,Argentina,AR,ARG,Buenos Aires,,94403,1032092344
Mercedes,Mercedes,-34.6500,-59.4333,Argentina,AR,ARG,Buenos Aires,minor,63284,1032994289
Morón,Moron,-34.6500,-58.6167,Argentina,AR,ARG,Buenos Aires,minor,99066,1032773254
Haedo,Haedo,-34.6500,-58.6000,Argentina,AR,ARG,Buenos Aires,,37745,1032803323
Ramos Mejía,Ramos Mejia,-34.6500,-58.5667,Argentina,AR,ARG,Buenos Aires,,120346,1032425368
La Paloma,La Paloma,-34.6500,-54.1667,Uruguay,UY,URY,Rocha,,3495,1858559267
Dock Sur,Dock Sur,-34.6417,-58.3478,Argentina,AR,ARG,Buenos Aires,,43168,1032579921
La Reja,La Reja,-34.6394,-58.8283,Argentina,AR,ARG,Buenos Aires,,47839,1032013959
Santa Cruz,Santa Cruz,-34.6372,-71.3631,Chile,CL,CHL,Libertador General Bernardo O’Higgins,,34914,1152821821
Chacabuco,Chacabuco,-34.6333,-60.4667,Argentina,AR,ARG,Buenos Aires,minor,38418,1032210547
Villa Sarmiento,Villa Sarmiento,-34.6333,-58.5667,Argentina,AR,ARG,Buenos Aires,,17481,1032961945
Ciudadela,Ciudadela,-34.6333,-58.5333,Argentina,AR,ARG,Buenos Aires,,73155,1032060423
Libertad,Libertad,-34.6333,-56.6192,Uruguay,UY,URY,San José,,11458,1858652953
Mount Barker,Mount Barker,-34.6300,117.6669,Australia,AU,AUS,Western Australia,,1898,1036651498
General Rodríguez,General Rodriguez,-34.6167,-58.9500,Argentina,AR,ARG,Buenos Aires,minor,85315,1032661171
El Palomar,El Palomar,-34.6167,-58.5833,Argentina,AR,ARG,Buenos Aires,,59031,1032243275
Caseros,Caseros,-34.6106,-58.5625,Argentina,AR,ARG,Buenos Aires,minor,95785,1032500630
Palmilla,Palmilla,-34.6042,-71.3583,Chile,CL,CHL,Libertador General Bernardo O’Higgins,,11844,1152157193
Buenos Aires,Buenos Aires,-34.6033,-58.3817,Argentina,AR,ARG,"Buenos Aires, Ciudad Autónoma de",primary,16710000,1032717330
San Rafael,San Rafael,-34.6000,-68.3333,Argentina,AR,ARG,Mendoza,minor,215020,1032221516
Hurlingham,Hurlingham,-34.6000,-58.6333,Argentina,AR,ARG,Buenos Aires,minor,60000,1032992892
Martín Coronado,Martin Coronado,-34.6000,-58.5500,Argentina,AR,ARG,Buenos Aires,,19121,1032260556
Gawler,Gawler,-34.5981,138.7450,Australia,AU,AUS,South Australia,,650,1036309493
San Fernando,San Fernando,-34.5833,-70.9833,Chile,CL,CHL,Libertador General Bernardo O’Higgins,minor,58367,1152802349
Junín,Junin,-34.5833,-60.9500,Argentina,AR,ARG,Buenos Aires,minor,85420,1032976047
Gansbaai,Gansbaai,-34.5828,19.3522,South Africa,ZA,ZAF,Western Cape,,11598,1710726795
Luján,Lujan,-34.5667,-59.1000,Argentina,AR,ARG,Buenos Aires,minor,106899,1032704827
General San Martín,General San Martin,-34.5667,-58.5333,Argentina,AR,ARG,Buenos Aires,minor,28339,1032374226
Billinghurst,Billinghurst,-34.5667,-58.5333,Argentina,AR,ARG,Buenos Aires,,19138,1032893380
Leeton,Leeton,-34.5667,146.4000,Australia,AU,AUS,New South Wales,,7437,1036102538
Moss Vale,Moss Vale,-34.5500,150.3833,Australia,AU,AUS,New South Wales,,8579,1036872626
San Miguel,San Miguel,-34.5333,-58.7167,Argentina,AR,ARG,Buenos Aires,,157532,1032038706
Muñiz,Muniz,-34.5333,-58.7000,Argentina,AR,ARG,Buenos Aires,,26221,1032339781
Bella Vista,Bella Vista,-34.5333,-58.6667,Argentina,AR,ARG,Buenos Aires,,72000,1032720412
Munro,Munro,-34.5333,-58.5167,Argentina,AR,ARG,Buenos Aires,,35844,1032318811
Vicente López,Vicente Lopez,-34.5333,-58.4750,Argentina,AR,ARG,Buenos Aires,,24078,1032549688
Bredasdorp,Bredasdorp,-34.5333,20.0417,South Africa,ZA,ZAF,Western Cape,,15524,1710282172
José C. Paz,Jose C. Paz,-34.5167,-58.7667,Argentina,AR,ARG,Buenos Aires,minor,216637,1032741145
Villa Adelina,Villa Adelina,-34.5167,-58.5333,Argentina,AR,ARG,Buenos Aires,,35307,1032929712
Villa Ballester,Villa Ballester,-34.5167,-58.5333,Argentina,AR,ARG,Buenos Aires,,35301,1032048875
Florida,Florida,-34.5167,-58.5000,Argentina,AR,ARG,Buenos Aires,,48158,1032721967
Canelones,Canelones,-34.5167,-56.2833,Uruguay,UY,URY,Canelones,admin,19865,1858741797
Los Polvorines,Los Polvorines,-34.5000,-58.7000,Argentina,AR,ARG,Buenos Aires,minor,60867,1032236823
Don Torcuato,Don Torcuato,-34.5000,-58.6167,Argentina,AR,ARG,Buenos Aires,,64867,1032462102
Peralillo,Peralillo,-34.4875,-71.4917,Chile,CL,CHL,Libertador General Bernardo O’Higgins,,10682,1152486574
Grand Bourg,Grand Bourg,-34.4833,-58.7167,Argentina,AR,ARG,Buenos Aires,,85189,1032455832
Martínez,Martinez,-34.4833,-58.5000,Argentina,AR,ARG,Buenos Aires,,65859,1032000014
La Lucila,La Lucila,-34.4833,-58.4833,Argentina,AR,ARG,Buenos Aires,,15844,1032447032
Rocha,Rocha,-34.4833,-54.3500,Uruguay,UY,URY,Rocha,admin,25422,1858936449
Bowral,Bowral,-34.4792,150.4181,Australia,AU,AUS,New South Wales,,10335,1036253752
Tortuguitas,Tortuguitas,-34.4750,-58.7556,Argentina,AR,ARG,Buenos Aires,,41390,1032762026
El Talar de Pacheco,El Talar de Pacheco,-34.4719,-58.6550,Argentina,AR,ARG,Buenos Aires,,50426,1032391611
Colonia del Sacramento,Colonia del Sacramento,-34.4714,-57.8442,Uruguay,UY,URY,Colonia,admin,26231,1858338569
Ingeniero Pablo Nogués,Ingeniero Pablo Nogues,-34.4667,-58.7667,Argentina,AR,ARG,Buenos Aires,,38470,1032949946
Beccar,Beccar,-34.4667,-58.5167,Argentina,AR,ARG,Buenos Aires,,58811,1032780556
San Isidro,San Isidro,-34.4667,-58.5167,Argentina,AR,ARG,Buenos Aires,minor,43595,1032862666
Acasusso,Acasusso,-34.4667,-58.5167,Argentina,AR,ARG,Buenos Aires,,12842,1032071091
Santa Lucía,Santa Lucia,-34.4525,-56.3964,Uruguay,UY,URY,Canelones,,16742,1858287723
Pilar,Pilar,-34.4500,-58.9167,Argentina,AR,ARG,Buenos Aires,minor,296826,1032712196
General Pacheco,General Pacheco,-34.4500,-58.6500,Argentina,AR,ARG,Buenos Aires,,43287,1032016569
San Fernando,San Fernando,-34.4500,-58.5667,Argentina,AR,ARG,Buenos Aires,minor,163240,1032726549
Virreyes,Virreyes,-34.4500,-58.5333,Argentina,AR,ARG,Buenos Aires,,39507,1032337826
Rinconada de Malloa,Rinconada de Malloa,-34.4464,-70.9458,Chile,CL,CHL,Libertador General Bernardo O’Higgins,,12342,1152964612
San Vicente de Tagua Tagua,San Vicente de Tagua Tagua,-34.4394,-71.0761,Chile,CL,CHL,Libertador General Bernardo O’Higgins,,44046,1152003173
San Andrés de Giles,San Andres de Giles,-34.4333,-59.4333,Argentina,AR,ARG,Buenos Aires,minor,23027,1032365242
Wollongong,Wollongong,-34.4331,150.8831,Australia,AU,AUS,New South Wales,,261896,1036502269
Juan L. Lacaze,Juan L. Lacaze,-34.4311,-57.4483,Uruguay,UY,URY,Colonia,,12816,1858599610
Rengo,Rengo,-34.4167,-70.8667,Chile,CL,CHL,Libertador General Bernardo O’Higgins,,55757,1152408592
Garín,Garin,-34.4167,-58.7500,Argentina,AR,ARG,Buenos Aires,,59335,1032601732
Hermanus,Hermanus,-34.4167,19.2500,South Africa,ZA,ZAF,Western Cape,,5610,1710409701
Peumo,Peumo,-34.3961,-71.1694,Chile,CL,CHL,Libertador General Bernardo O’Higgins,,14313,1152229023
Pichilemu,Pichilemu,-34.3919,-72.0139,Chile,CL,CHL,Libertador General Bernardo O’Higgins,minor,12776,1152498637
Carmen de Areco,Carmen de Areco,-34.3858,-59.8294,Argentina,AR,ARG,Buenos Aires,minor,14692,1032088260
Matheu,Matheu,-34.3667,-58.8333,Argentina,AR,ARG,Buenos Aires,,19964,1032459344
Ingeniero Maschwitz,Ingeniero Maschwitz,-34.3667,-58.7500,Argentina,AR,ARG,Buenos Aires,,12482,1032533871
Minas,Minas,-34.3667,-55.2333,Uruguay,UY,URY,Lavalleja,admin,38446,1858724823
Tumby Bay,Tumby Bay,-34.3667,136.1000,Australia,AU,AUS,South Australia,,1511,1036529327
Pichidegua,Pichidegua,-34.3586,-71.2831,Chile,CL,CHL,Libertador General Bernardo O’Higgins,,19714,1152025661
Quinta de Tilcoco,Quinta de Tilcoco,-34.3547,-70.9636,Chile,CL,CHL,Libertador General Bernardo O’Higgins,,12379,1152072609
Tala,Tala,-34.3500,-55.7667,Uruguay,UY,URY,Canelones,,13254,1858233151
Belén de Escobar,Belen de Escobar,-34.3333,-58.8167,Argentina,AR,ARG,Buenos Aires,minor,54678,1032287290
San José,San Jose,-34.3333,-56.7167,Uruguay,UY,URY,San José,admin,36747,1858927597
Rosario,Rosario,-34.3139,-57.3525,Uruguay,UY,URY,Colonia,,9311,1858160603
Coltauco,Coltauco,-34.3000,-71.1000,Chile,CL,CHL,Libertador General Bernardo O’Higgins,,17918,1152000004
Young,Young,-34.3000,148.3000,Australia,AU,AUS,New South Wales,,7712,1036073044
Las Cabras,Las Cabras,-34.2917,-71.3097,Chile,CL,CHL,Libertador General Bernardo O’Higgins,,24640,1152883984
Griffith,Griffith,-34.2900,146.0400,Australia,AU,AUS,New South Wales,,18196,1036563313
Capilla del Señor,Capilla del Senor,-34.2833,-59.1000,Argentina,AR,ARG,Buenos Aires,minor,9244,1032168682
Nueva Helvecia,Nueva Helvecia,-34.2833,-57.2000,Uruguay,UY,URY,Colonia,,10630,1858393787
Berri,Berri,-34.2833,140.6000,Australia,AU,AUS,South Australia,,4088,1036554717
Requínoa,Requinoa,-34.2786,-70.8117,Chile,CL,CHL,Libertador General Bernardo O’Higgins,,26089,1152583421
Rufino,Rufino,-34.2667,-62.7000,Argentina,AR,ARG,Santa Fe,,18727,1032127696
San Antonio de Areco,San Antonio de Areco,-34.2500,-59.4667,Argentina,AR,ARG,Buenos Aires,minor,21333,1032676766
Manjimup,Manjimup,-34.2411,116.1464,Australia,AU,AUS,Western Australia,,4138,1036022434
Olivar,Olivar,-34.2330,-70.8830,Chile,CL,CHL,Libertador General Bernardo O’Higgins,,13033,1152993328
Caledon,Caledon,-34.2300,19.4283,South Africa,ZA,ZAF,Western Cape,,13020,1710038887
Olivar Bajo,Olivar Bajo,-34.2289,-70.8799,Chile,CL,CHL,Libertador General Bernardo O’Higgins,,13033,1152427692
Doñihue,Donihue,-34.2261,-70.9650,Chile,CL,CHL,Libertador General Bernardo O’Higgins,,18764,1152472682
Aiguá,Aigua,-34.2000,-54.7500,Uruguay,UY,URY,Maldonado,,2465,1858068520
Castillos,Castillos,-34.1989,-53.8575,Uruguay,UY,URY,Rocha,,7541,1858885344
Lo Miranda,Lo Miranda,-34.1900,-70.8900,Chile,CL,CHL,Libertador General Bernardo O’Higgins,,9000,1152468313
Mildura,Mildura,-34.1889,142.1583,Australia,AU,AUS,Victoria,,34565,1036624348
Mossel Bay,Mossel Bay,-34.1833,22.1333,South Africa,ZA,ZAF,Western Cape,,59031,1710597106
Machalí,Machali,-34.1825,-70.6514,Chile,CL,CHL,Libertador General Bernardo O’Higgins,,42572,1152901401
Rancagua,Rancagua,-34.1667,-70.7500,Chile,CL,CHL,Libertador General Bernardo O’Higgins,admin,231370,1152672356
Capitán Sarmiento,Capitan Sarmiento,-34.1667,-59.7833,Argentina,AR,ARG,Buenos Aires,minor,11316,1032299456
Campana,Campana,-34.1667,-58.9167,Argentina,AR,ARG,Buenos Aires,minor,86860,1032345885
Grabouw,Grabouw,-34.1500,19.0167,South Africa,ZA,ZAF,Western Cape,,44593,1710958841
Laboulaye,Laboulaye,-34.1167,-63.4000,Argentina,AR,ARG,Córdoba,minor,20534,1032996866
Florida,Florida,-34.1000,-56.2167,Uruguay,UY,URY,Florida,admin,33639,1858077099
Riversdale,Riversdale,-34.0969,21.2622,South Africa,ZA,ZAF,Western Cape,,16176,1710864327
Zárate,Zarate,-34.0833,-59.0333,Argentina,AR,ARG,Buenos Aires,minor,98522,1032392383
Arrecifes,Arrecifes,-34.0667,-60.1167,Argentina,AR,ARG,Buenos Aires,minor,27000,1032802963
Campbelltown,Campbelltown,-34.0667,150.8167,Australia,AU,AUS,New South Wales,,12566,1036474450
Graneros,Graneros,-34.0647,-70.7264,Chile,CL,CHL,Libertador General Bernardo O’Higgins,,30320,1152651446
Mitchells Plain,Mitchells Plain,-34.0506,18.6181,South Africa,ZA,ZAF,Western Cape,,310485,1710549821
Plettenberg Bay,Plettenberg Bay,-34.0500,23.3667,South Africa,ZA,ZAF,Western Cape,,31804,1710852785
Groot-Brakrivier,Groot-Brakrivier,-34.0425,22.2314,South Africa,ZA,ZAF,Western Cape,,10619,1710820658
Khayelitsha,Khayelitsha,-34.0403,18.6778,South Africa,ZA,ZAF,Western Cape,,391749,1710736316
Knysna,Knysna,-34.0356,23.0489,South Africa,ZA,ZAF,Western Cape,,51078,1710311704
Codegua,Codegua,-34.0347,-70.6686,Chile,CL,CHL,Libertador General Bernardo O’Higgins,,12495,1152476133
Humansdorp,Humansdorp,-34.0333,24.7667,South Africa,ZA,ZAF,Eastern Cape,,28990,1710228362
Jeffrey’s Bay,Jeffrey's Bay,-34.0333,24.9167,South Africa,ZA,ZAF,Eastern Cape,,27107,1710277177
Swellendam,Swellendam,-34.0231,20.4400,South Africa,ZA,ZAF,Western Cape,,17537,1710416218
Villa Cañás,Villa Canas,-34.0000,-61.6000,Argentina,AR,ARG,Santa Fe,,9433,1032652134
Carmelo,Carmelo,-34.0000,-58.2833,Uruguay,UY,URY,Colonia,,18041,1858670999
Summerstrand,Summerstrand,-33.9914,25.6569,South Africa,ZA,ZAF,Eastern Cape,,12614,1710926578
Villiersdorp,Villiersdorp,-33.9908,19.2894,South Africa,ZA,ZAF,Western Cape,,10004,1710014567
San Francisco de Mostazal,San Francisco de Mostazal,-33.9799,-70.7122,Chile,CL,CHL,Libertador General Bernardo O’Higgins,,12719,1152382411
George,George,-33.9667,22.4500,South Africa,ZA,ZAF,Western Cape,,157394,1710164136
Gqeberha,Gqeberha,-33.9581,25.6000,South Africa,ZA,ZAF,Eastern Cape,,967677,1710918997
Kuilsrivier,Kuilsrivier,-33.9414,18.7066,South Africa,ZA,ZAF,Western Cape,,46686,1710421112
Stellenbosch,Stellenbosch,-33.9367,18.8614,South Africa,ZA,ZAF,Western Cape,,77476,1710221701
Bonnievale,Bonnievale,-33.9275,20.1006,South Africa,ZA,ZAF,Western Cape,,9092,1710844520
Cape Town,Cape Town,-33.9253,18.4239,South Africa,ZA,ZAF,Western Cape,primary,4770313,1710680650
Wallaroo,Wallaroo,-33.9167,137.6167,Australia,AU,AUS,South Australia,,3481,1036743246
Parow,Parow,-33.9000,18.6000,South Africa,ZA,ZAF,Western Cape,,119462,1710483674
San Pedro,San Pedro,-33.8944,-71.4558,Chile,CL,CHL,Región Metropolitana,,9726,1152749736
Colón,Colon,-33.8833,-61.1000,Argentina,AR,ARG,Buenos Aires,minor,23171,1032795867
Pergamino,Pergamino,-33.8833,-60.5667,Argentina,AR,ARG,Buenos Aires,minor,104985,1032214150
Nueva Palmira,Nueva Palmira,-33.8833,-58.4167,Uruguay,UY,URY,Colonia,,9857,1858193401
Bethelsdorp,Bethelsdorp,-33.8833,25.5000,South Africa,ZA,ZAF,Eastern Cape,,182012,1710792781
Flemington,Flemington,-33.8680,151.0709,Australia,AU,AUS,New South Wales,,9108,1036297540
Sydney,Sydney,-33.8678,151.2100,Australia,AU,AUS,New South Wales,admin,4840600,1036074917
Justo Daract,Justo Daract,-33.8667,-65.1667,Argentina,AR,ARG,San Luis,,12135,1032088229
Esperance,Esperance,-33.8611,121.8919,Australia,AU,AUS,Western Australia,,2080,1036299314
Ashton,Ashton,-33.8347,20.0547,South Africa,ZA,ZAF,Western Cape,,13325,1710554296
Cowra,Cowra,-33.8339,148.6861,Australia,AU,AUS,New South Wales,,8254,1036204877
Clare,Clare,-33.8333,138.6000,Australia,AU,AUS,South Australia,,3327,1036842122
Hankey,Hankey,-33.8314,24.8808,South Africa,ZA,ZAF,Eastern Cape,,11761,1710584710
Paine,Paine,-33.8167,-70.7500,Chile,CL,CHL,Región Metropolitana,,72759,1152629158
Despatch,Despatch,-33.8015,25.4768,South Africa,ZA,ZAF,Eastern Cape,,39619,1710356281
Baradero,Baradero,-33.8000,-59.5167,Argentina,AR,ARG,Buenos Aires,minor,28537,1032310302
Robertson,Robertson,-33.8000,19.8833,South Africa,ZA,ZAF,Western Cape,,21929,1710095226
Montagu,Montagu,-33.7833,20.1167,South Africa,ZA,ZAF,Western Cape,,15176,1710489752
Uitenhage,Uitenhage,-33.7667,25.4000,South Africa,ZA,ZAF,Eastern Cape,,103639,1710276157
Penrith,Penrith,-33.7511,150.6942,Australia,AU,AUS,New South Wales,,13295,1036796452
Isla de Maipo,Isla de Maipo,-33.7500,-70.9000,Chile,CL,CHL,Región Metropolitana,,36219,1152656260
Venado Tuerto,Venado Tuerto,-33.7500,-61.9667,Argentina,AR,ARG,Santa Fe,,83,1032284763
Quakers Hill,Quakers Hill,-33.7361,150.8778,Australia,AU,AUS,New South Wales,,27080,1036046868
Buin,Buin,-33.7333,-70.7333,Chile,CL,CHL,Región Metropolitana,,96614,1152114001
Paarl,Paarl,-33.7242,18.9558,South Africa,ZA,ZAF,Western Cape,,112045,1710440011
Katoomba,Katoomba,-33.7100,150.3100,Australia,AU,AUS,New South Wales,,7964,1036674004
Villa Paranacito,Villa Paranacito,-33.7000,-58.6833,Argentina,AR,ARG,Entre Ríos,minor,15321,1032597939
Chuy,Chuy,-33.6964,-53.4600,Uruguay,UY,URY,Rocha,,9675,1858852364
Katanning,Katanning,-33.6908,117.5553,Australia,AU,AUS,Western Australia,,3637,1036411379
El Monte,El Monte,-33.6833,-71.0167,Chile,CL,CHL,Región Metropolitana,,26459,1152684387
Cowell,Cowell,-33.6833,136.9167,Australia,AU,AUS,South Australia,,990,1036921929
San Pedro,San Pedro,-33.6792,-59.6669,Argentina,AR,ARG,Buenos Aires,minor,75616,1032604675
Lascano,Lascano,-33.6739,-54.2075,Uruguay,UY,URY,Rocha,,7645,1858593854
Talagante,Talagante,-33.6667,-70.8667,Chile,CL,CHL,Región Metropolitana,minor,56990,1152696612
Villa Mercedes,Villa Mercedes,-33.6667,-65.4667,Argentina,AR,ARG,San Luis,minor,111391,1032858021
Alexandria,Alexandria,-33.6533,26.4083,South Africa,ZA,ZAF,Eastern Cape,,10085,1710000053
Busselton,Busselton,-33.6478,115.3458,Australia,AU,AUS,Western Australia,,25329,1036911902
Worcester,Worcester,-33.6450,19.4436,South Africa,ZA,ZAF,Western Cape,,97098,1710498245
San José de Maipo,San Jose de Maipo,-33.6400,-70.3531,Chile,CL,CHL,Región Metropolitana,,13376,1152128380
Rocas de Santo Domingo,Rocas de Santo Domingo,-33.6358,-71.6281,Chile,CL,CHL,Valparaíso,,8860,1152451543
Pirque,Pirque,-33.6333,-70.5500,Chile,CL,CHL,Región Metropolitana,,16565,1152296541
Wellington,Wellington,-33.6333,18.9833,South Africa,ZA,ZAF,Western Cape,,55543,1710214412
Calera de Tango,Calera de Tango,-33.6302,-70.7616,Chile,CL,CHL,Región Metropolitana,,18235,1152670034
Melipilla,Melipilla,-33.6253,-71.2711,Chile,CL,CHL,Región Metropolitana,minor,108540,1152483678
Peñaflor,Penaflor,-33.6167,-70.9167,Chile,CL,CHL,Región Metropolitana,,90201,1152857586
Puente Alto,Puente Alto,-33.6167,-70.5667,Chile,CL,CHL,Región Metropolitana,minor,573935,1152516346
Richmond,Richmond,-33.6000,150.7500,Australia,AU,AUS,New South Wales,,5418,1036934091
San Antonio,San Antonio,-33.5933,-71.6217,Chile,CL,CHL,Valparaíso,minor,86239,1152830501
Port Alfred,Port Alfred,-33.5917,26.8875,South Africa,ZA,ZAF,Eastern Cape,,25859,1710920478
San Bernardo,San Bernardo,-33.5833,-70.7000,Chile,CL,CHL,Región Metropolitana,minor,301313,1152050361
La Pintana,La Pintana,-33.5833,-70.6333,Chile,CL,CHL,Región Metropolitana,,177335,1152999558
Oudtshoorn,Oudtshoorn,-33.5833,22.2000,South Africa,ZA,ZAF,Western Cape,,90822,1710502855
Ravensthorpe,Ravensthorpe,-33.5817,120.0469,Australia,AU,AUS,Western Australia,,350,1036878618
Padre Hurtado,Padre Hurtado,-33.5667,-70.8333,Chile,CL,CHL,Región Metropolitana,,76219,1152529252
El Bosque,El Bosque,-33.5667,-70.6750,Chile,CL,CHL,Región Metropolitana,,175594,1152734764
Tunuyán,Tunuyan,-33.5667,-69.0167,Argentina,AR,ARG,Mendoza,minor,49132,1032526901
Dysselsdorp,Dysselsdorp,-33.5667,22.4333,South Africa,ZA,ZAF,Western Cape,,12544,1710175783
Cartagena,Cartagena,-33.5425,-71.5958,Chile,CL,CHL,Valparaíso,,22738,1152675574
San Ramón,San Ramon,-33.5333,-70.6417,Chile,CL,CHL,Región Metropolitana,,94906,1152877656
La Granja,La Granja,-33.5333,-70.6250,Chile,CL,CHL,Región Metropolitana,,116571,1152785745
La Florida,La Florida,-33.5333,-70.5833,Chile,CL,CHL,Región Metropolitana,,366916,1152939649
Alcorta,Alcorta,-33.5333,-61.1167,Argentina,AR,ARG,Santa Fe,,9870,1032368367
Dolores,Dolores,-33.5333,-58.2167,Uruguay,UY,URY,Soriano,,15753,1858369530
Trinidad,Trinidad,-33.5333,-56.8833,Uruguay,UY,URY,Flores,,21429,1858903609
Santa Vitória do Palmar,Santa Vitoria do Palmar,-33.5189,-53.3681,Brazil,BR,BRA,Rio Grande do Sul,,30983,1076114405
María Pinto,Maria Pinto,-33.5167,-71.1167,Chile,CL,CHL,Región Metropolitana,,10343,1152556156
Maipú,Maipu,-33.5167,-70.7667,Chile,CL,CHL,Región Metropolitana,,521627,1152583016
Espejo,Espejo,-33.5167,-70.6917,Chile,CL,CHL,Región Metropolitana,,98804,1152487376
Los Cerrillos,Los Cerrillos,-33.5000,-70.7167,Chile,CL,CHL,Región Metropolitana,,89520,1152504242
Peñalolén,Penalolen,-33.4833,-70.5500,Chile,CL,CHL,Región Metropolitana,,216060,1152224242
De Doorns,De Doorns,-33.4833,19.6833,South Africa,ZA,ZAF,Western Cape,,11278,1710197485
Lithgow,Lithgow,-33.4833,150.1500,Australia,AU,AUS,New South Wales,,4956,1036591538
San Joaquín,San Joaquin,-33.4792,-70.6413,Chile,CL,CHL,Región Metropolitana,,94492,1152095800
La Paz,La Paz,-33.4667,-67.5500,Argentina,AR,ARG,Mendoza,minor,9560,1032294439
José Batlle y Ordóñez,Jose Batlle y Ordonez,-33.4667,-55.1500,Uruguay,UY,URY,Lavalleja,,2203,1858852252
El Tabo,El Tabo,-33.4586,-71.6619,Chile,CL,CHL,Valparaíso,,13286,1152719676
La Reina,La Reina,-33.4500,-70.5500,Chile,CL,CHL,Región Metropolitana,,92787,1152154801
Firmat,Firmat,-33.4500,-61.4833,Argentina,AR,ARG,Santa Fe,,25757,1032869120
Malmesbury,Malmesbury,-33.4500,18.7333,South Africa,ZA,ZAF,Western Cape,,35897,1710868778
Santiago,Santiago,-33.4372,-70.6506,Chile,CL,CHL,Región Metropolitana,primary,7171000,1152554349
La Carlota,La Carlota,-33.4333,-63.3000,Argentina,AR,ARG,Córdoba,minor,12537,1032992119
Bathurst,Bathurst,-33.4200,149.5778,Australia,AU,AUS,New South Wales,,34303,1036446465
Kelso,Kelso,-33.4189,149.6058,Australia,AU,AUS,New South Wales,,8968,1036270756
Las Condes,Las Condes,-33.4117,-70.5500,Chile,CL,CHL,Región Metropolitana,,249893,1152858037
Kirkwood,Kirkwood,-33.4003,25.4425,South Africa,ZA,ZAF,Eastern Cape,,13765,1710628933
Curacaví,Curacavi,-33.4000,-71.1500,Chile,CL,CHL,Región Metropolitana,,24298,1152178936
Renca,Renca,-33.4000,-70.7167,Chile,CL,CHL,Región Metropolitana,,133518,1152882154
El Quisco,El Quisco,-33.3913,-71.6929,Chile,CL,CHL,Valparaíso,,11329,1152280245
Algarrobo,Algarrobo,-33.3911,-71.6928,Chile,CL,CHL,Valparaíso,,10217,1152829157
Conchalí,Conchali,-33.3833,-70.6750,Chile,CL,CHL,Región Metropolitana,,133256,1152123561
Darling,Darling,-33.3833,18.3833,South Africa,ZA,ZAF,Western Cape,,10420,1710629684
Forbes,Forbes,-33.3833,148.0167,Australia,AU,AUS,New South Wales,,6837,1036523834
Quilicura,Quilicura,-33.3667,-70.7333,Chile,CL,CHL,Región Metropolitana,,210410,1152402180
Durazno,Durazno,-33.3667,-56.5167,Uruguay,UY,URY,Durazno,admin,34368,1858006236
Ceres,Ceres,-33.3667,19.3167,South Africa,ZA,ZAF,Western Cape,,33224,1710538694
Lo Barnechea,Lo Barnechea,-33.3500,-70.5167,Chile,CL,CHL,Región Metropolitana,,105833,1152490874
San Nicolás de los Arroyos,San Nicolas de los Arroyos,-33.3333,-60.2167,Argentina,AR,ARG,Buenos Aires,minor,160000,1032067887
Bunbury,Bunbury,-33.3272,115.6369,Australia,AU,AUS,Western Australia,,71090,1036561011
Casablanca,Casablanca,-33.3167,-71.4167,Chile,CL,CHL,Región Metropolitana,,21874,1152471983
Ramallo,Ramallo,-33.3167,-60.2000,Argentina,AR,ARG,Buenos Aires,minor,11428,1032462630
Wagin,Wagin,-33.3167,117.3500,Australia,AU,AUS,Western Australia,,1311,1036851354
San Luis,San Luis,-33.3000,-66.3333,Argentina,AR,ARG,San Luis,admin,169947,1032547434
Central Coast,Central Coast,-33.3000,151.2000,Australia,AU,AUS,New South Wales,,346596,1036067845
Grahamstown,Grahamstown,-33.2996,26.5200,South Africa,ZA,ZAF,Eastern Cape,,91548,1710671857
Tulbagh,Tulbagh,-33.2850,19.1378,South Africa,ZA,ZAF,Western Cape,,8969,1710401390
Lampa,Lampa,-33.2833,-70.9000,Chile,CL,CHL,Región Metropolitana,,37599,1152360918
Chicureo Abajo,Chicureo Abajo,-33.2833,-70.6333,Chile,CL,CHL,Región Metropolitana,,10975,1152232267
Corral de Bustos,Corral de Bustos,-33.2833,-62.2000,Argentina,AR,ARG,Córdoba,,10407,1032324190
Orange,Orange,-33.2833,149.1000,Australia,AU,AUS,New South Wales,,38097,1036760396
Australind,Australind,-33.2800,115.7260,Australia,AU,AUS,Western Australia,,14539,1036182351
Santa Rosa,Santa Rosa,-33.2500,-68.1500,Argentina,AR,ARG,Mendoza,minor,15818,1032261452
Mercedes,Mercedes,-33.2500,-58.0333,Uruguay,UY,URY,Soriano,admin,41974,1858182538
Villa Constitución,Villa Constitucion,-33.2333,-60.3333,Argentina,AR,ARG,Santa Fe,minor,47374,1032793574
Treinta y Tres,Treinta y Tres,-33.2333,-54.3833,Uruguay,UY,URY,Treinta y Tres,admin,25477,1858879204
Batuco,Batuco,-33.2308,-70.8089,Chile,CL,CHL,Región Metropolitana,,16784,1152375054
Colina,Colina,-33.2017,-70.6703,Chile,CL,CHL,Región Metropolitana,minor,146209,1152944896
Port Pirie,Port Pirie,-33.1858,138.0169,Australia,AU,AUS,South Australia,,176,1036571606
Rivadavia,Rivadavia,-33.1833,-68.4667,Argentina,AR,ARG,Mendoza,minor,82582,1032956544
Arroyo Seco,Arroyo Seco,-33.1667,-60.5000,Argentina,AR,ARG,Santa Fe,,20620,1032882258
Gualeguay,Gualeguay,-33.1500,-59.3333,Argentina,AR,ARG,Entre Ríos,minor,43009,1032077195
Moorreesburg,Moorreesburg,-33.1500,18.6667,South Africa,ZA,ZAF,Western Cape,,12877,1710940552
Kimba,Kimba,-33.1396,136.4191,Australia,AU,AUS,South Australia,,608,1036035341
Río Cuarto,Rio Cuarto,-33.1333,-64.3500,Argentina,AR,ARG,Córdoba,minor,200000,1032552145
Fray Bentos,Fray Bentos,-33.1333,-58.3000,Uruguay,UY,URY,Río Negro,admin,24406,1858727525
Parkes,Parkes,-33.1333,148.1667,Australia,AU,AUS,New South Wales,,9832,1036977270
Placilla de Peñuelas,Placilla de Penuelas,-33.1156,-71.5678,Chile,CL,CHL,Valparaíso,,39344,1152562274
Tiltil,Tiltil,-33.0817,-70.9278,Chile,CL,CHL,Región Metropolitana,,14755,1152063956
San Martín,San Martin,-33.0806,-68.4706,Argentina,AR,ARG,Mendoza,minor,79476,1032297325
Quilpué,Quilpue,-33.0500,-71.4500,Chile,CL,CHL,Valparaíso,minor,147991,1152063222
Casilda,Casilda,-33.0500,-61.1667,Argentina,AR,ARG,Santa Fe,minor,35058,1032000005
Valparaíso,Valparaiso,-33.0461,-71.6197,Chile,CL,CHL,Valparaíso,admin,296655,1152337970
Villa Alemana,Villa Alemana,-33.0422,-71.3733,Chile,CL,CHL,Valparaíso,,125140,1152839066
Whyalla,Whyalla,-33.0333,137.5667,Australia,AU,AUS,South Australia,,21501,1036961366
Gobernador Gálvez,Gobernador Galvez,-33.0256,-60.6336,Argentina,AR,ARG,Santa Fe,,80769,1032739359
Viña del Mar,Vina del Mar,-33.0244,-71.5517,Chile,CL,CHL,Valparaíso,,332875,1152898644
East London,East London,-33.0175,27.9047,South Africa,ZA,ZAF,Eastern Cape,,478676,1710178149
Limache,Limache,-33.0167,-71.2667,Chile,CL,CHL,Valparaíso,,43999,1152056672
Gualeguaychú,Gualeguaychu,-33.0167,-58.5167,Argentina,AR,ARG,Entre Ríos,minor,109461,1032523704
Pérez,Perez,-33.0000,-60.7667,Argentina,AR,ARG,Santa Fe,,26448,1032176211
Luján de Cuyo,Lujan de Cuyo,-32.9980,-68.8730,Argentina,AR,ARG,Mendoza,minor,73058,1032844765
Saldanha,Saldanha,-32.9978,17.9456,South Africa,ZA,ZAF,Western Cape,,28142,1710078862
Olmué,Olmue,-32.9953,-71.1856,Chile,CL,CHL,Valparaíso,,15611,1152762974
Maipú,Maipu,-32.9667,-68.7500,Argentina,AR,ARG,Mendoza,minor,106662,1032731844
Peterborough,Peterborough,-32.9667,138.8333,Australia,AU,AUS,South Australia,,1428,1036104272
Rosario,Rosario,-32.9575,-60.6394,Argentina,AR,ARG,Santa Fe,minor,1276000,1032770677
Vergara,Vergara,-32.9500,-53.9333,Uruguay,UY,URY,Treinta y Tres,,3810,1858979569
Gonubie,Gonubie,-32.9430,28.0080,South Africa,ZA,ZAF,Eastern Cape,,11471,1710831729
Narrogin,Narrogin,-32.9360,117.1780,Australia,AU,AUS,Western Australia,,4274,1036221961
Concón,Concon,-32.9167,-71.5167,Chile,CL,CHL,Valparaíso,,32273,1152523682
Godoy Cruz,Godoy Cruz,-32.9167,-68.8333,Argentina,AR,ARG,Mendoza,minor,191299,1032263200
Funes,Funes,-32.9167,-60.8167,Argentina,AR,ARG,Santa Fe,,23520,1032992183
Newcastle,Newcastle,-32.9167,151.7500,Australia,AU,AUS,New South Wales,,152984,1036468001
Ivanhoe,Ivanhoe,-32.9164,144.2994,Australia,AU,AUS,New South Wales,,162,1036571526
Vredenburg,Vredenburg,-32.9064,17.9958,South Africa,ZA,ZAF,Western Cape,,38382,1710121734
Roldán,Roldan,-32.9011,-60.9072,Argentina,AR,ARG,Santa Fe,,14299,1032014352
Piketberg,Piketberg,-32.9000,18.7667,South Africa,ZA,ZAF,Western Cape,,12075,1710229097
Mendoza,Mendoza,-32.8833,-68.8167,Argentina,AR,ARG,Mendoza,admin,115041,1032433516
Calle Larga,Calle Larga,-32.8831,-70.6486,Chile,CL,CHL,Valparaíso,,13366,1152509615
Catemu,Catemu,-32.8828,-70.6483,Chile,CL,CHL,Valparaíso,,13285,1152810666
Quillota,Quillota,-32.8667,-71.2500,Chile,CL,CHL,Valparaíso,minor,73261,1152185579
Las Heras,Las Heras,-32.8500,-68.8167,Argentina,AR,ARG,Mendoza,minor,189067,1032781204
Carcarañá,Carcarana,-32.8500,-61.1500,Argentina,AR,ARG,Santa Fe,,16277,1032358026
Granadero Baigorria,Granadero Baigorria,-32.8500,-60.7000,Argentina,AR,ARG,Santa Fe,,36994,1032975920
Bhisho,Bhisho,-32.8494,27.4381,South Africa,ZA,ZAF,Eastern Cape,admin,11192,1710672530
Llaillay,Llaillay,-32.8403,-70.9483,Chile,CL,CHL,Valparaíso,,22659,1152335361
Cessnock,Cessnock,-32.8342,151.3555,Australia,AU,AUS,New South Wales,,15177,1036822046
Los Andes,Los Andes,-32.8333,-70.6167,Chile,CL,CHL,Valparaíso,minor,59388,1152833598
La Cruz,La Cruz,-32.8281,-71.1761,Chile,CL,CHL,Valparaíso,,22098,1152948474
Cañada de Gómez,Canada de Gomez,-32.8167,-61.4000,Argentina,AR,ARG,Santa Fe,minor,29205,1032264958
Capitán Bermúdez,Capitan Bermudez,-32.8167,-60.7167,Argentina,AR,ARG,Santa Fe,,29218,1032901343
Paso de los Toros,Paso de los Toros,-32.8112,-56.5086,Uruguay,UY,URY,Durazno,,12985,1858768851
General Cabrera,General Cabrera,-32.7994,-63.8683,Argentina,AR,ARG,Córdoba,,11734,1032554638
San Esteban,San Esteban,-32.7992,-70.5803,Chile,CL,CHL,Valparaíso,,17090,1152059779
Streaky Bay,Streaky Bay,-32.7990,134.2048,Australia,AU,AUS,South Australia,,967,1036134944
Hijuelas,Hijuelas,-32.7986,-71.1439,Chile,CL,CHL,Valparaíso,,17988,1152290187
Alice,Alice,-32.7892,26.8350,South Africa,ZA,ZAF,Eastern Cape,,15143,1710093776
La Calera,La Calera,-32.7867,-71.1972,Chile,CL,CHL,Valparaíso,,50554,1152388166
Quintero,Quintero,-32.7833,-71.5333,Chile,CL,CHL,Valparaíso,,31923,1152270732
Armstrong,Armstrong,-32.7833,-61.6000,Argentina,AR,ARG,Santa Fe,,11181,1032420901
Fray Luis A. Beltrán,Fray Luis A. Beltran,-32.7833,-60.7333,Argentina,AR,ARG,Santa Fe,,15176,1032928868
Velddrif,Velddrif,-32.7833,18.1667,South Africa,ZA,ZAF,Western Cape,,11017,1710031295
Fort Beaufort,Fort Beaufort,-32.7789,26.6353,South Africa,ZA,ZAF,Eastern Cape,,25668,1710185168
Raymond Terrace,Raymond Terrace,-32.7615,151.7441,Australia,AU,AUS,New South Wales,,12820,1036570825
Saint Helena Bay,Saint Helena Bay,-32.7583,18.0278,South Africa,ZA,ZAF,Western Cape,,11529,1710255294
General Deheza,General Deheza,-32.7564,-63.7889,Argentina,AR,ARG,Córdoba,,18000,1032325674
San Felipe,San Felipe,-32.7500,-70.7239,Chile,CL,CHL,Valparaíso,minor,64120,1152329463
San Lorenzo,San Lorenzo,-32.7500,-60.7333,Argentina,AR,ARG,Santa Fe,,46239,1032944740
Santa María,Santa Maria,-32.7469,-70.6597,Chile,CL,CHL,Valparaíso,,14452,1152248168
Nogales,Nogales,-32.7350,-71.2025,Chile,CL,CHL,Valparaíso,,21856,1152042866
Puerto San Martín,Puerto San Martin,-32.7167,-60.7333,Argentina,AR,ARG,Santa Fe,,13243,1032928261
Somerset East,Somerset East,-32.7167,25.5833,South Africa,ZA,ZAF,Eastern Cape,,18825,1710266553
Maitland,Maitland,-32.7167,151.5500,Australia,AU,AUS,New South Wales,,1885,1036034945
Rutherford,Rutherford,-32.7153,151.5250,Australia,AU,AUS,New South Wales,,11884,1036471917
Adelaide,Adelaide,-32.7078,26.2956,South Africa,ZA,ZAF,Eastern Cape,,12191,1710819752
Marcos Juárez,Marcos Juarez,-32.7000,-62.1000,Argentina,AR,ARG,Córdoba,minor,27004,1032677394
Young,Young,-32.7000,-57.6333,Uruguay,UY,URY,Río Negro,,16756,1858448729
Urdinarrain,Urdinarrain,-32.6856,-58.8867,Argentina,AR,ARG,Entre Ríos,,8986,1032326044
Las Parejas,Las Parejas,-32.6833,-61.5333,Argentina,AR,ARG,Santa Fe,,12375,1032630210
Leones,Leones,-32.6617,-62.2967,Argentina,AR,ARG,Córdoba,,10391,1032664852
Macul,Macul,-32.6583,-70.6000,Chile,CL,CHL,Región Metropolitana,,112535,1152608665
Bell Ville,Bell Ville,-32.6333,-62.6833,Argentina,AR,ARG,Córdoba,minor,33835,1032028928
Putaendo,Putaendo,-32.6278,-70.7167,Chile,CL,CHL,Valparaíso,,15361,1152325898
Victoria,Victoria,-32.6167,-60.1667,Argentina,AR,ARG,Entre Ríos,minor,30623,1032557014
Mudgee,Mudgee,-32.6125,149.5872,Australia,AU,AUS,New South Wales,,9830,1036213564
Río Branco,Rio Branco,-32.5972,-53.3833,Uruguay,UY,URY,Cerro Largo,,14604,1858289927
Uspallata,Uspallata,-32.5667,-69.3167,Argentina,AR,ARG,Mendoza,,3439,1032547934
Stutterheim,Stutterheim,-32.5667,27.4167,South Africa,ZA,ZAF,Eastern Cape,,24673,1710990071
Singleton,Singleton,-32.5667,151.1697,Australia,AU,AUS,New South Wales,,5000,1036947514
Jaguarão,Jaguarao,-32.5658,-53.3758,Brazil,BR,BRA,Rio Grande do Sul,,26603,1076878261
Mandurah,Mandurah,-32.5289,115.7231,Australia,AU,AUS,Western Australia,,90306,1036773118
Port Augusta,Port Augusta,-32.4925,137.7658,Australia,AU,AUS,South Australia,,6562,1036945368
Las Rosas,Las Rosas,-32.4833,-61.5833,Argentina,AR,ARG,Santa Fe,minor,13689,1032811294
Concepción del Uruguay,Concepcion del Uruguay,-32.4833,-58.2333,Argentina,AR,ARG,Entre Ríos,minor,100728,1032999059
La Ligua,La Ligua,-32.4500,-71.2167,Chile,CL,CHL,Valparaíso,minor,19127,1152826056
Villa Nueva,Villa Nueva,-32.4331,-63.2475,Argentina,AR,ARG,Córdoba,,18818,1032374249
Cabildo,Cabildo,-32.4275,-71.0664,Chile,CL,CHL,Valparaíso,,19388,1152995057
Hernando,Hernando,-32.4167,-63.7333,Argentina,AR,ARG,Córdoba,,11182,1032830608
Villa María,Villa Maria,-32.4103,-63.2314,Argentina,AR,ARG,Córdoba,minor,88600,1032987787
Nogoyá,Nogoya,-32.4000,-59.8000,Argentina,AR,ARG,Entre Ríos,minor,22824,1032062118
Basavilbaso,Basavilbaso,-32.3667,-58.8833,Argentina,AR,ARG,Entre Ríos,,9742,1032605549
Melo,Melo,-32.3667,-54.1833,Uruguay,UY,URY,Cerro Largo,admin,51830,1858600801
Beaufort West,Beaufort West,-32.3500,22.5833,South Africa,ZA,ZAF,Western Cape,,34085,1710940488
Paysandú,Paysandu,-32.3214,-58.0756,Uruguay,UY,URY,Paysandú,admin,76429,1858756515
Rosario del Tala,Rosario del Tala,-32.3000,-59.1333,Argentina,AR,ARG,Entre Ríos,minor,12801,1032485062
Nuevo Paysandú,Nuevo Paysandu,-32.2667,-58.0667,Uruguay,UY,URY,Paysandú,,8578,1858171895
Muswellbrook,Muswellbrook,-32.2656,150.8886,Australia,AU,AUS,New South Wales,,10901,1036253543
Dubbo,Dubbo,-32.2569,148.6011,Australia,AU,AUS,New South Wales,,38783,1036855042
Graaff-Reinet,Graaff-Reinet,-32.2522,24.5406,South Africa,ZA,ZAF,Eastern Cape,,35672,1710616617
Petorca,Petorca,-32.2514,-70.9314,Chile,CL,CHL,Valparaíso,,9881,1152135793
Kwinana,Kwinana,-32.2394,115.7702,Australia,AU,AUS,Western Australia,,20086,1036753478
Arroio Grande,Arroio Grande,-32.2378,-53.0869,Brazil,BR,BRA,Rio Grande do Sul,,17558,1076512343
Colón,Colon,-32.2167,-58.1333,Argentina,AR,ARG,Entre Ríos,minor,23150,1032656120
Villa San José,Villa San Jose,-32.2000,-58.2167,Argentina,AR,ARG,Entre Ríos,,16336,1032325673
Norseman,Norseman,-32.1961,121.7781,Australia,AU,AUS,Western Australia,,555,1036257263
Villa Rumipal,Villa Rumipal,-32.1879,-64.4803,Argentina,AR,ARG,Córdoba,,1269,1032717709
Embalse,Embalse,-32.1833,-64.4167,Argentina,AR,ARG,Córdoba,,9107,1032017911
Río Tercero,Rio Tercero,-32.1833,-64.1000,Argentina,AR,ARG,Córdoba,,46421,1032103221
El Trébol,El Trebol,-32.1833,-61.7167,Argentina,AR,ARG,Santa Fe,,11086,1032100113
Forster,Forster,-32.1806,152.5117,Australia,AU,AUS,New South Wales,,13740,1036685795
Villa Elisa,Villa Elisa,-32.1667,-58.4000,Argentina,AR,ARG,Entre Ríos,,10266,1032046223
Cradock,Cradock,-32.1650,25.6175,South Africa,ZA,ZAF,Eastern Cape,,8626,1710933404
Ceduna,Ceduna,-32.1167,133.6667,Australia,AU,AUS,South Australia,,3505,1036725988
Scone,Scone,-32.0833,150.8500,Australia,AU,AUS,New South Wales,,5013,1036918224
Santa Rosa de Calamuchita,Santa Rosa de Calamuchita,-32.0667,-64.5333,Argentina,AR,ARG,Córdoba,,12830,1032342654
Diamante,Diamante,-32.0667,-60.6500,Argentina,AR,ARG,Entre Ríos,minor,19142,1032164257
Rio Grande,Rio Grande,-32.0350,-52.0986,Brazil,BR,BRA,Rio Grande do Sul,,191900,1076567920
Oliva,Oliva,-32.0333,-63.5667,Argentina,AR,ARG,Córdoba,minor,11672,1032905249
Gálvez,Galvez,-32.0333,-61.2167,Argentina,AR,ARG,Santa Fe,,20100,1032423534
Crespo,Crespo,-32.0333,-60.3167,Argentina,AR,ARG,Entre Ríos,,19536,1032701663
São José do Norte,Sao Jose do Norte,-32.0150,-52.0419,Brazil,BR,BRA,Rio Grande do Sul,,25443,1076411252
Cofimvaba,Cofimvaba,-32.0025,27.5806,South Africa,ZA,ZAF,Eastern Cape,,8783,1710247329
Coronda,Coronda,-31.9667,-60.9167,Argentina,AR,ARG,Santa Fe,minor,18115,1032005345
Perth,Perth,-31.9559,115.8606,Australia,AU,AUS,Western Australia,admin,2141834,1036178956
Broken Hill,Broken Hill,-31.9500,141.4667,Australia,AU,AUS,New South Wales,,17706,1036216956
Villa Dolores,Villa Dolores,-31.9333,-65.2000,Argentina,AR,ARG,Córdoba,,29854,1032787286
Los Vilos,Los Vilos,-31.9167,-71.5167,Chile,CL,CHL,Coquimbo,,21382,1152593219
Oncativo,Oncativo,-31.9167,-63.6667,Argentina,AR,ARG,Córdoba,,13180,1032751442
Queenstown,Queenstown,-31.9000,26.8833,South Africa,ZA,ZAF,Eastern Cape,,68872,1710110028
Taree,Taree,-31.9000,152.4500,Australia,AU,AUS,New South Wales,,16197,1036855717
San Jorge,San Jorge,-31.8961,-61.8597,Argentina,AR,ARG,Santa Fe,,17615,1032250388
Viale,Viale,-31.8667,-60.0167,Argentina,AR,ARG,Entre Ríos,,8939,1032929060
Villaguay,Villaguay,-31.8500,-59.0167,Argentina,AR,ARG,Entre Ríos,minor,49445,1032112502
Ncora,Ncora,-31.7938,27.7579,South Africa,ZA,ZAF,Eastern Cape,,9755,1710489656
Pelotas,Pelotas,-31.7719,-52.3425,Brazil,BR,BRA,Rio Grande do Sul,,325689,1076815692
Salamanca,Salamanca,-31.7667,-70.9667,Chile,CL,CHL,Coquimbo,,25326,1152804087
Capão do Leão,Capao do Leao,-31.7628,-52.4839,Brazil,BR,BRA,Rio Grande do Sul,,26487,1076641402
San Carlos Centro,San Carlos Centro,-31.7333,-61.1000,Argentina,AR,ARG,Santa Fe,,11055,1032029022
Tacuarembó,Tacuarembo,-31.7333,-55.9833,Uruguay,UY,URY,Tacuarembó,admin,54755,1858952595
Paraná,Parana,-31.7331,-60.5297,Argentina,AR,ARG,Entre Ríos,admin,247863,1032266693
Pilar,Pilar,-31.6833,-63.9000,Argentina,AR,ARG,Córdoba,,14735,1032492017
Alta Gracia,Alta Gracia,-31.6667,-64.4333,Argentina,AR,ARG,Córdoba,minor,48140,1032411567
Santo Tomé,Santo Tome,-31.6667,-60.7667,Argentina,AR,ARG,Santa Fe,,65684,1032375645
Vredendal,Vredendal,-31.6644,18.5061,South Africa,ZA,ZAF,Western Cape,,18170,1710903827
Northam,Northam,-31.6531,116.6661,Australia,AU,AUS,Western Australia,,6548,1036868267
Río Segundo,Rio Segundo,-31.6501,-63.9116,Argentina,AR,ARG,Córdoba,,19713,1032477999
Villa Aberastain,Villa Aberastain,-31.6500,-68.5833,Argentina,AR,ARG,San Juan,minor,8946,1032501472
Caucete,Caucete,-31.6500,-68.2833,Argentina,AR,ARG,San Juan,minor,28222,1032782355
Illapel,Illapel,-31.6333,-71.1667,Chile,CL,CHL,Coquimbo,minor,20751,1152446656
Santa Fe,Santa Fe,-31.6333,-60.7000,Argentina,AR,ARG,Santa Fe,admin,405683,1032817575
Port Saint John’s,Port Saint John's,-31.6288,29.5369,South Africa,ZA,ZAF,Eastern Cape,,6441,1710506018
San Salvador,San Salvador,-31.6167,-58.5000,Argentina,AR,ARG,Entre Ríos,minor,12733,1032064102
Vanrhynsdorp,Vanrhynsdorp,-31.6167,18.7333,South Africa,ZA,ZAF,Western Cape,,6272,1710187274
Candiota,Candiota,-31.6000,-53.7333,Brazil,BR,BRA,Rio Grande do Sul,,10710,1076794665
Villa Krause,Villa Krause,-31.5833,-68.5333,Argentina,AR,ARG,San Juan,minor,107778,1032771655
Villa del Rosario,Villa del Rosario,-31.5833,-63.5333,Argentina,AR,ARG,Córdoba,minor,15394,1032540940
Mthatha,Mthatha,-31.5800,28.7900,South Africa,ZA,ZAF,Eastern Cape,,137772,1710651314
Pinheiro Machado,Pinheiro Machado,-31.5778,-53.3725,Brazil,BR,BRA,Rio Grande do Sul,,11214,1076070054
Wilcannia,Wilcannia,-31.5569,143.3792,Australia,AU,AUS,New South Wales,,539,1036134474
Yanchep,Yanchep,-31.5500,115.6340,Australia,AU,AUS,Western Australia,,8859,1036796651
San Juan,San Juan,-31.5342,-68.5261,Argentina,AR,ARG,San Juan,admin,471389,1032869625
Rivadavia,Rivadavia,-31.5303,-68.5947,Argentina,AR,ARG,San Juan,minor,82582,1032402116
Chimbas,Chimbas,-31.5000,-68.5319,Argentina,AR,ARG,San Juan,minor,87258,1032442768
Middelburg,Middelburg,-31.4939,25.0172,South Africa,ZA,ZAF,Eastern Cape,,18681,1710010705
Merredin,Merredin,-31.4820,118.2790,Australia,AU,AUS,Western Australia,,2384,1036578320
Indwe,Indwe,-31.4660,27.3330,South Africa,ZA,ZAF,Eastern Cape,,20000,1710759876
Piratini,Piratini,-31.4478,-53.1039,Brazil,BR,BRA,Rio Grande do Sul,,17502,1076525146
San Martín,San Martin,-31.4397,-68.5206,Argentina,AR,ARG,San Juan,minor,22046,1032363608
San Francisco,San Francisco,-31.4356,-62.0714,Argentina,AR,ARG,Córdoba,minor,62001,1032491643
Port Macquarie,Port Macquarie,-31.4333,152.9000,Australia,AU,AUS,New South Wales,,44830,1036051032
Frontera,Frontera,-31.4278,-62.0619,Argentina,AR,ARG,Córdoba,,10520,1032791892
Córdoba,Cordoba,-31.4167,-64.1833,Argentina,AR,ARG,Córdoba,admin,2106734,1032803249
Arroyito,Arroyito,-31.4167,-63.0500,Argentina,AR,ARG,Córdoba,,22726,1032970192
Esperanza,Esperanza,-31.4167,-60.9333,Argentina,AR,ARG,Santa Fe,minor,42082,1032763447
Villa Carlos Paz,Villa Carlos Paz,-31.4000,-64.5167,Argentina,AR,ARG,Córdoba,,75315,1032854975
Concordia,Concordia,-31.4000,-58.0333,Argentina,AR,ARG,Entre Ríos,minor,149450,1032923957
Canguçu,Cangucu,-31.4000,-52.6833,Brazil,BR,BRA,Rio Grande do Sul,,49680,1076710867
Canela Baja,Canela Baja,-31.3989,-71.4561,Chile,CL,CHL,Coquimbo,,9182,1152763006
Molteno,Molteno,-31.3961,26.3631,South Africa,ZA,ZAF,Eastern Cape,,11553,1710419587
Salto,Salto,-31.3833,-57.9500,Uruguay,UY,URY,Salto,admin,124878,1858575950
Malvinas Argentinas,Malvinas Argentinas,-31.3697,-64.0531,Argentina,AR,ARG,Córdoba,,12187,1032010904
São Lourenço do Sul,Sao Lourenco do Sul,-31.3653,-51.9783,Brazil,BR,BRA,Rio Grande do Sul,,41989,1076758883
Chepes,Chepes,-31.3500,-66.6000,Argentina,AR,ARG,La Rioja,minor,6020,1032137147
La Calera,La Calera,-31.3439,-64.3353,Argentina,AR,ARG,Córdoba,,32227,1032927400
Monte Cristo,Monte Cristo,-31.3431,-63.9444,Argentina,AR,ARG,Córdoba,,18254,1032121160
Gingin,Gingin,-31.3400,115.9100,Australia,AU,AUS,Western Australia,,852,1036686561
Bagé,Bage,-31.3308,-54.1069,Brazil,BR,BRA,Rio Grande do Sul,,117938,1076515015
Laguna Paiva,Laguna Paiva,-31.3039,-60.6589,Argentina,AR,ARG,Santa Fe,,12334,1032996959
Rafaela,Rafaela,-31.2667,-61.4833,Argentina,AR,ARG,Santa Fe,minor,92945,1032181625
Santa María,Santa Maria,-31.2611,-64.4639,Argentina,AR,ARG,Córdoba,,9526,1032132957
Cosquín,Cosquin,-31.2436,-64.4653,Argentina,AR,ARG,Córdoba,minor,57458,1032221091
Unquillo,Unquillo,-31.2333,-64.3167,Argentina,AR,ARG,Córdoba,,18483,1032865903
Southern Cross,Southern Cross,-31.2306,119.3278,Australia,AU,AUS,Western Australia,,523,1036931490
Combarbalá,Combarbala,-31.1833,-71.0000,Chile,CL,CHL,Coquimbo,,13605,1152896722
Tranqueras,Tranqueras,-31.1833,-55.7667,Uruguay,UY,URY,Rivera,,7235,1858727708
Santa Rosa de Río Primero,Santa Rosa de Rio Primero,-31.1500,-63.3833,Argentina,AR,ARG,Córdoba,minor,10873,1032062100
Woomera,Woomera,-31.1496,136.8000,Australia,AU,AUS,South Australia,,450,1036392822
Mostardas,Mostardas,-31.1000,-50.9500,Brazil,BR,BRA,Rio Grande do Sul,,12090,1076486273
La Falda,La Falda,-31.0833,-64.5000,Argentina,AR,ARG,Córdoba,,16335,1032413311
Tamworth,Tamworth,-31.0833,150.9167,Australia,AU,AUS,New South Wales,,180,1036233388
Kempsey,Kempsey,-31.0833,152.8333,Australia,AU,AUS,New South Wales,,474,1036897003
Jesús María,Jesus Maria,-30.9833,-64.1000,Argentina,AR,ARG,Córdoba,minor,31602,1032875104
Federación,Federacion,-30.9833,-57.9167,Argentina,AR,ARG,Entre Ríos,minor,16658,1032860100
Barkly East,Barkly East,-30.9681,27.5933,South Africa,ZA,ZAF,Eastern Cape,,9986,1710127191
Dom Pedrito,Dom Pedrito,-30.9670,-54.6670,Brazil,BR,BRA,Rio Grande do Sul,,36981,1076917608
Carnarvon,Carnarvon,-30.9667,22.1333,South Africa,ZA,ZAF,Northern Cape,,6612,1710331786
Gunnedah,Gunnedah,-30.9667,150.2500,Australia,AU,AUS,New South Wales,,8338,1036500021
Santa Elena,Santa Elena,-30.9500,-59.8000,Argentina,AR,ARG,Entre Ríos,,17791,1032467373
Federal,Federal,-30.9500,-58.8000,Argentina,AR,ARG,Entre Ríos,minor,16075,1032401212
Sunchales,Sunchales,-30.9333,-61.5667,Argentina,AR,ARG,Santa Fe,,20537,1032630690
Kingoonya,Kingoonya,-30.9170,135.3147,Australia,AU,AUS,South Australia,,4,1036942792
Rivera,Rivera,-30.9025,-55.5506,Uruguay,UY,URY,Rivera,admin,64465,1858819782
Punitaqui,Punitaqui,-30.9000,-71.2667,Chile,CL,CHL,Coquimbo,,10956,1152111575
Santana do Livramento,Santana do Livramento,-30.8775,-55.5331,Brazil,BR,BRA,Rio Grande do Sul,,84421,1076271841
Brinkmann,Brinkmann,-30.8669,-62.0336,Argentina,AR,ARG,Córdoba,,9890,1032512387
Capilla del Monte,Capilla del Monte,-30.8500,-64.5167,Argentina,AR,ARG,Córdoba,,11181,1032258122
Camaquã,Camaqua,-30.8500,-51.8167,Brazil,BR,BRA,Rio Grande do Sul,,62200,1076449009
Margate,Margate,-30.8500,30.3667,South Africa,ZA,ZAF,KwaZulu-Natal,,26785,1710711260
Monte Patria,Monte Patria,-30.8333,-70.7000,Chile,CL,CHL,Coquimbo,,30056,1152733391
San Justo,San Justo,-30.7833,-60.5833,Argentina,AR,ARG,Santa Fe,minor,21624,1032734419
Chajarí,Chajari,-30.7667,-57.9833,Argentina,AR,ARG,Entre Ríos,,45848,1032147348
La Paz,La Paz,-30.7500,-59.6500,Argentina,AR,ARG,Entre Ríos,minor,24307,1032955221
Port Shepstone,Port Shepstone,-30.7500,30.4500,South Africa,ZA,ZAF,KwaZulu-Natal,,35633,1710443227
Kalgoorlie,Kalgoorlie,-30.7489,121.4658,Australia,AU,AUS,Western Australia,,30841,1036087904
Cruz del Eje,Cruz del Eje,-30.7333,-64.8000,Argentina,AR,ARG,Córdoba,minor,30680,1032976495
Baltasar Brum,Baltasar Brum,-30.7167,-57.3333,Uruguay,UY,URY,Artigas,,2531,1858039985
Colesberg,Colesberg,-30.7167,25.1000,South Africa,ZA,ZAF,Northern Cape,,16869,1710885210
Morteros,Morteros,-30.7000,-62.0000,Argentina,AR,ARG,Córdoba,,16890,1032224912
Dom Feliciano,Dom Feliciano,-30.7000,-52.1167,Brazil,BR,BRA,Rio Grande do Sul,,13051,1076532414
Aliwal North,Aliwal North,-30.7000,26.7000,South Africa,ZA,ZAF,Eastern Cape,,3992,1710445896
Mount Fletcher,Mount Fletcher,-30.6920,28.5030,South Africa,ZA,ZAF,Eastern Cape,,11488,1710227236
Tapes,Tapes,-30.6728,-51.3958,Brazil,BR,BRA,Rio Grande do Sul,,14659,1076622644
De Aar,De Aar,-30.6500,24.0167,South Africa,ZA,ZAF,Northern Cape,,23760,1710551900
Ovalle,Ovalle,-30.6000,-71.2000,Chile,CL,CHL,Coquimbo,minor,75864,1152767334
Cêrro Grande,Cerro Grande,-30.5900,-51.7389,Brazil,BR,BRA,Rio Grande do Sul,,9178,1076627862
San Javier,San Javier,-30.5833,-59.9500,Argentina,AR,ARG,Santa Fe,minor,13604,1032258062
Harding,Harding,-30.5833,29.8833,South Africa,ZA,ZAF,KwaZulu-Natal,,9544,1710525967
Kokstad,Kokstad,-30.5539,29.4269,South Africa,ZA,ZAF,KwaZulu-Natal,,51561,1710099997
Encruzilhada do Sul,Encruzilhada do Sul,-30.5333,-52.5167,Brazil,BR,BRA,Rio Grande do Sul,,23819,1076248019
Caçapava do Sul,Cacapava do Sul,-30.5122,-53.4908,Brazil,BR,BRA,Rio Grande do Sul,,32515,1076550820
Armidale,Armidale,-30.5000,151.6500,Australia,AU,AUS,New South Wales,,21312,1036975829
Artigas,Artigas,-30.4667,-56.4667,Uruguay,UY,URY,Artigas,admin,40658,1858646839
Bethulie,Bethulie,-30.4667,25.9667,South Africa,ZA,ZAF,Free State,,16000,1710614025
Andamooka,Andamooka,-30.4485,137.1651,Australia,AU,AUS,South Australia,,262,1036260794
Deán Funes,Dean Funes,-30.4333,-64.3500,Argentina,AR,ARG,Córdoba,minor,21518,1032778928
Quthing,Quthing,-30.4001,27.7002,Lesotho,LS,LSO,Quthing,admin,15000,1426618526
Quaraí,Quarai,-30.3875,-56.4514,Brazil,BR,BRA,Rio Grande do Sul,,23500,1076203994
San José de Feliciano,San Jose de Feliciano,-30.3833,-58.7500,Argentina,AR,ARG,Entre Ríos,minor,10282,1032667894
Chamical,Chamical,-30.3667,-66.3167,Argentina,AR,ARG,La Rioja,minor,12919,1032026963
Matatiele,Matatiele,-30.3422,28.8061,South Africa,ZA,ZAF,KwaZulu-Natal,,12466,1710858358
São Gabriel,Sao Gabriel,-30.3358,-54.3200,Brazil,BR,BRA,Rio Grande do Sul,,58487,1076674208
San Cristóbal,San Cristobal,-30.3167,-61.2333,Argentina,AR,ARG,Santa Fe,minor,14389,1032634720
eMuziwezinto,eMuziwezinto,-30.3167,30.6667,South Africa,ZA,ZAF,KwaZulu-Natal,,16205,1710277194
Narrabri,Narrabri,-30.3167,149.7667,Australia,AU,AUS,New South Wales,,5499,1036714493
Coffs Harbour,Coffs Harbour,-30.3022,153.1189,Australia,AU,AUS,New South Wales,,25752,1036320442
Barra do Ribeiro,Barra do Ribeiro,-30.3000,-51.3000,Brazil,BR,BRA,Rio Grande do Sul,,12225,1076080277
Scottburgh,Scottburgh,-30.2833,30.7500,South Africa,ZA,ZAF,KwaZulu-Natal,,11403,1710536127
Palmares do Sul,Palmares do Sul,-30.2667,-50.5167,Brazil,BR,BRA,Rio Grande do Sul,,12844,1076619064
Monte Caseros,Monte Caseros,-30.2500,-57.6500,Argentina,AR,ARG,Corrientes,minor,23470,1032051417
Bella Unión,Bella Union,-30.2500,-57.5833,Uruguay,UY,URY,Artigas,,19100,1858883224
Rosário do Sul,Rosario do Sul,-30.2500,-54.9167,Brazil,BR,BRA,Rio Grande do Sul,,36630,1076900712
San José de Jáchal,San Jose de Jachal,-30.2333,-68.7500,Argentina,AR,ARG,San Juan,minor,21018,1032660627
Andacollo,Andacollo,-30.2303,-71.0858,Chile,CL,CHL,Coquimbo,,11044,1152597504
Rodeo,Rodeo,-30.2164,-69.1394,Argentina,AR,ARG,San Juan,minor,2625,1032937217
Pântano Grande,Pantano Grande,-30.1833,-52.3667,Brazil,BR,BRA,Rio Grande do Sul,,10212,1076467088
São Sepé,Sao Sepe,-30.1667,-53.5667,Brazil,BR,BRA,Rio Grande do Sul,,21219,1076826234
Cidreira,Cidreira,-30.1608,-50.2339,Brazil,BR,BRA,Rio Grande do Sul,,16583,1076392597
eXobho,eXobho,-30.1572,30.0647,South Africa,ZA,ZAF,KwaZulu-Natal,,12461,1710624745
Mohale’s Hoek,Mohale's Hoek,-30.1500,27.4667,Lesotho,LS,LSO,Mohale’s Hoek,admin,24992,1426343192
Butiá,Butia,-30.1200,-51.9619,Brazil,BR,BRA,Rio Grande do Sul,,19084,1076641089
Guaíba,Guaiba,-30.1183,-51.3214,Brazil,BR,BRA,Rio Grande do Sul,,92924,1076594929
Qacha’s Nek,Qacha's Nek,-30.1167,28.6833,Lesotho,LS,LSO,Qacha’s Nek,admin,,1426361264
Seforong,Seforong,-30.1028,28.1864,Lesotho,LS,LSO,Quthing,,9720,1426821523
Bourke,Bourke,-30.1000,145.9333,Australia,AU,AUS,New South Wales,,1535,1036074667
Maghalleen,Maghalleen,-30.0942,27.4189,Lesotho,LS,LSO,Mohale’s Hoek,,21869,1426440371
Kingsborough,Kingsborough,-30.0833,30.8667,South Africa,ZA,ZAF,KwaZulu-Natal,,16368,1710907180
Viamão,Viamao,-30.0808,-51.0228,Brazil,BR,BRA,Rio Grande do Sul,,224116,1076314777
Arroio dos Ratos,Arroio dos Ratos,-30.0769,-51.7289,Brazil,BR,BRA,Rio Grande do Sul,,14601,1076770923
Sauce,Sauce,-30.0667,-58.7667,Argentina,AR,ARG,Corrientes,minor,9115,1032154340
eManzimtoti,eManzimtoti,-30.0500,30.8833,South Africa,ZA,ZAF,KwaZulu-Natal,,13813,1710134242
Cachoeira do Sul,Cachoeira do Sul,-30.0392,-52.8939,Brazil,BR,BRA,Rio Grande do Sul,,80070,1076336795
Vicuña,Vicuna,-30.0333,-70.7167,Chile,CL,CHL,Coquimbo,,25085,1152771899
Porto Alegre,Porto Alegre,-30.0331,-51.2300,Brazil,BR,BRA,Rio Grande do Sul,admin,1332570,1076658221
Rio Pardo,Rio Pardo,-29.9897,-52.3781,Brazil,BR,BRA,Rio Grande do Sul,,34654,1076675236
Alvorada,Alvorada,-29.9897,-51.0833,Brazil,BR,BRA,Rio Grande do Sul,,187315,1076999998
Siloe,Siloe,-29.9836,27.2792,Lesotho,LS,LSO,Mohale’s Hoek,,18261,1426116869
Charqueadas,Charqueadas,-29.9667,-51.6333,Brazil,BR,BRA,Rio Grande do Sul,,35012,1076933382
Tramandaí,Tramandai,-29.9667,-50.1333,Brazil,BR,BRA,Rio Grande do Sul,minor,52632,1076409044
São Jerônimo,Sao Jeronimo,-29.9589,-51.7219,Brazil,BR,BRA,Rio Grande do Sul,,21028,1076728230
Coquimbo,Coquimbo,-29.9531,-71.3433,Chile,CL,CHL,Coquimbo,minor,204068,1152038253
Cachoeirinha,Cachoeirinha,-29.9508,-51.0939,Brazil,BR,BRA,Rio Grande do Sul,,136258,1076573967
Triunfo,Triunfo,-29.9428,-51.7178,Brazil,BR,BRA,Rio Grande do Sul,,27498,1076750257
Gravataí,Gravatai,-29.9333,-50.9833,Brazil,BR,BRA,Rio Grande do Sul,,265070,1076919841
Canoas,Canoas,-29.9200,-51.1800,Brazil,BR,BRA,Rio Grande do Sul,,347657,1076009922
La Serena,La Serena,-29.9000,-71.2500,Chile,CL,CHL,Coquimbo,admin,195382,1152155065
Rasebetsane,Rasebetsane,-29.8992,27.6628,Lesotho,LS,LSO,Mafeteng,,10519,1426189375
Osório,Osorio,-29.8942,-50.2652,Brazil,BR,BRA,Rio Grande do Sul,,47400,1076367566
Cacequi,Cacequi,-29.8833,-54.8167,Brazil,BR,BRA,Rio Grande do Sul,,11157,1076502675
Durban,Durban,-29.8833,31.0500,South Africa,ZA,ZAF,KwaZulu-Natal,,838634,1710149138
Ceres,Ceres,-29.8667,-61.9500,Argentina,AR,ARG,Santa Fe,,14499,1032855291
Queensburgh,Queensburgh,-29.8667,30.9333,South Africa,ZA,ZAF,KwaZulu-Natal,,54846,1710379982
Esteio,Esteio,-29.8608,-51.1789,Brazil,BR,BRA,Rio Grande do Sul,,76137,1076924823
Santo Antônio,Santo Antonio,-29.8333,-50.5333,Brazil,BR,BRA,Rio Grande do Sul,,42942,1076978577
Westville,Westville,-29.8310,30.9250,South Africa,ZA,ZAF,KwaZulu-Natal,,30508,1710233007
Restinga Sêca,Restinga Seca,-29.8167,-53.3833,Brazil,BR,BRA,Rio Grande do Sul,,14939,1076824655
Mafeteng,Mafeteng,-29.8167,27.2500,Lesotho,LS,LSO,Mafeteng,admin,57059,1426506047
Pinetown,Pinetown,-29.8167,30.8500,South Africa,ZA,ZAF,KwaZulu-Natal,,144026,1710417771
Taquari,Taquari,-29.8000,-51.8597,Brazil,BR,BRA,Rio Grande do Sul,,25198,1076188300
New Germany,New Germany,-29.8000,30.8833,South Africa,ZA,ZAF,KwaZulu-Natal,,12592,1710344867
Gillitts,Gillitts,-29.7972,30.7944,South Africa,ZA,ZAF,KwaZulu-Natal,,8661,1710616584
Alegrete,Alegrete,-29.7838,-55.7910,Brazil,BR,BRA,Rio Grande do Sul,,72409,1076174745
Curuzú Cuatiá,Curuzu Cuatia,-29.7833,-58.0833,Argentina,AR,ARG,Corrientes,minor,34470,1032386934
Kloof,Kloof,-29.7833,30.8333,South Africa,ZA,ZAF,KwaZulu-Natal,,29704,1710132769
Hillcrest,Hillcrest,-29.7800,30.7628,South Africa,ZA,ZAF,KwaZulu-Natal,,13329,1710122351
Capão da Canoa,Capao da Canoa,-29.7667,-50.0167,Brazil,BR,BRA,Rio Grande do Sul,minor,63594,1076749939
Inverell,Inverell,-29.7667,151.1167,Australia,AU,AUS,New South Wales,,9654,1036652902
Ramabitsa,Ramabitsa,-29.7625,27.6139,Lesotho,LS,LSO,Maseru,,12234,1426883500
São Leopoldo,Sao Leopoldo,-29.7600,-51.1469,Brazil,BR,BRA,Rio Grande do Sul,,217410,1076834293
Uruguaiana,Uruguaiana,-29.7550,-57.0878,Brazil,BR,BRA,Rio Grande do Sul,,117210,1076680267
Edenburg,Edenburg,-29.7347,25.9369,South Africa,ZA,ZAF,Free State,,14566,1710160465
Wepener,Wepener,-29.7333,27.0333,South Africa,ZA,ZAF,Free State,,9553,1710058517
uMhlanga Rocks,uMhlanga Rocks,-29.7333,31.0708,South Africa,ZA,ZAF,KwaZulu-Natal,,24238,1710763964
Santa Cruz do Sul,Santa Cruz do Sul,-29.7178,-52.4258,Brazil,BR,BRA,Rio Grande do Sul,,133230,1076862896
Paso de los Libres,Paso de los Libres,-29.7167,-57.0833,Argentina,AR,ARG,Corrientes,minor,43251,1032166435
Capela de Santana,Capela de Santana,-29.7000,-51.3333,Brazil,BR,BRA,Rio Grande do Sul,,11159,1076636417
Mohlanapeng,Mohlanapeng,-29.6975,28.6947,Lesotho,LS,LSO,Thaba-Tseka,,9882,1426075936
Portão,Portao,-29.6928,-51.2350,Brazil,BR,BRA,Rio Grande do Sul,,34072,1076512435
Montenegro,Montenegro,-29.6889,-51.4608,Brazil,BR,BRA,Rio Grande do Sul,,59415,1076000662
Santa Maria,Santa Maria,-29.6833,-53.8000,Brazil,BR,BRA,Rio Grande do Sul,,271633,1076178738
Grafton,Grafton,-29.6833,152.9333,Australia,AU,AUS,New South Wales,,10408,1036615468
Campo Bom,Campo Bom,-29.6789,-51.0528,Brazil,BR,BRA,Rio Grande do Sul,,62886,1076977021
Novo Hamburgo,Novo Hamburgo,-29.6778,-51.1308,Brazil,BR,BRA,Rio Grande do Sul,,227732,1076221386
Candelária,Candelaria,-29.6689,-52.7889,Brazil,BR,BRA,Rio Grande do Sul,,28906,1076542930
Prieska,Prieska,-29.6683,22.7439,South Africa,ZA,ZAF,Northern Cape,,14246,1710649877
Rolante,Rolante,-29.6667,-50.5667,Brazil,BR,BRA,Rio Grande do Sul,,21253,1076821052
Springbok,Springbok,-29.6667,17.8833,South Africa,ZA,ZAF,Northern Cape,,12790,1710894218
Taquara,Taquara,-29.6506,-50.7806,Brazil,BR,BRA,Rio Grande do Sul,,57584,1076672393
Estância Velha,Estancia Velha,-29.6500,-51.1833,Brazil,BR,BRA,Rio Grande do Sul,,50672,1076521402
Nako,Nako,-29.6481,27.7336,Lesotho,LS,LSO,Maseru,,13146,1426816465
Agudo,Agudo,-29.6453,-53.2400,Brazil,BR,BRA,Rio Grande do Sul,,16039,1076713609
Sapiranga,Sapiranga,-29.6333,-51.0000,Brazil,BR,BRA,Rio Grande do Sul,,75648,1076553484
Parobé,Parobe,-29.6289,-50.8350,Brazil,BR,BRA,Rio Grande do Sul,,58858,1076852725
Hopetown,Hopetown,-29.6258,24.0856,South Africa,ZA,ZAF,Northern Cape,,10259,1710937752
São Pedro do Sul,Sao Pedro do Sul,-29.6167,-54.1667,Brazil,BR,BRA,Rio Grande do Sul,,15577,1076597961
Bom Retiro do Sul,Bom Retiro do Sul,-29.6167,-51.9333,Brazil,BR,BRA,Rio Grande do Sul,,12294,1076743801
Pietermaritzburg,Pietermaritzburg,-29.6167,30.3833,South Africa,ZA,ZAF,KwaZulu-Natal,admin,839327,1710690280
Ararica,Ararica,-29.6160,-50.9280,Brazil,BR,BRA,Rio Grande do Sul,,8525,1076769710
Venâncio Aires,Venancio Aires,-29.6000,-52.1833,Brazil,BR,BRA,Rio Grande do Sul,,68653,1076887157
Ivoti,Ivoti,-29.6000,-51.1667,Brazil,BR,BRA,Rio Grande do Sul,,22983,1076815528
São Sebastião do Caí,Sao Sebastiao do Cai,-29.5869,-51.3758,Brazil,BR,BRA,Rio Grande do Sul,,24428,1076903891
Terra de Areia,Terra de Areia,-29.5833,-50.0667,Brazil,BR,BRA,Rio Grande do Sul,minor,10286,1076030490
Dois Irmãos,Dois Irmaos,-29.5800,-51.0850,Brazil,BR,BRA,Rio Grande do Sul,,30709,1076193510
Igrejinha,Igrejinha,-29.5739,-50.7900,Brazil,BR,BRA,Rio Grande do Sul,,32808,1076637934
Mpophomeni,Mpophomeni,-29.5670,30.1820,South Africa,ZA,ZAF,KwaZulu-Natal,,25732,1710050186
São Francisco de Assis,Sao Francisco de Assis,-29.5503,-55.1311,Brazil,BR,BRA,Rio Grande do Sul,,17618,1076070438
Sinimbu,Sinimbu,-29.5389,-52.5219,Brazil,BR,BRA,Rio Grande do Sul,,8578,1076004049
Thaba-Tseka,Thaba-Tseka,-29.5333,28.6000,Lesotho,LS,LSO,Thaba-Tseka,admin,5423,1426611266
Ballitoville,Ballitoville,-29.5333,31.2167,South Africa,ZA,ZAF,KwaZulu-Natal,,19234,1710448341
Three Springs,Three Springs,-29.5333,115.7617,Australia,AU,AUS,Western Australia,,356,1036669084
Villa Ojo de Agua,Villa Ojo de Agua,-29.5167,-63.7000,Argentina,AR,ARG,Santiago del Estero,minor,15000,1032372035
Três Coroas,Tres Coroas,-29.5153,-50.7794,Brazil,BR,BRA,Rio Grande do Sul,,24425,1076520525
Cruzeiro do Sul,Cruzeiro do Sul,-29.5128,-51.9850,Brazil,BR,BRA,Rio Grande do Sul,,11600,1076987096
Nyakosoba,Nyakosoba,-29.5047,27.8692,Lesotho,LS,LSO,Maseru,,10893,1426143192
Estrêla,Estrela,-29.5019,-51.9658,Brazil,BR,BRA,Rio Grande do Sul,,32183,1076456706
Romang,Romang,-29.5000,-59.7667,Argentina,AR,ARG,Santa Fe,,9237,1032388161
Jaguari,Jaguari,-29.4969,-54.6900,Brazil,BR,BRA,Rio Grande do Sul,,10579,1076183625
Bom Princípio,Bom Principio,-29.4833,-51.3500,Brazil,BR,BRA,Rio Grande do Sul,,13132,1076325363
Lajeado,Lajeado,-29.4669,-51.9608,Brazil,BR,BRA,Rio Grande do Sul,,97432,1076361223
Vera,Vera,-29.4667,-60.2167,Argentina,AR,ARG,Santa Fe,minor,19185,1032305174
Howick,Howick,-29.4667,30.2333,South Africa,ZA,ZAF,KwaZulu-Natal,,21639,1710825371
Moree,Moree,-29.4658,149.8339,Australia,AU,AUS,New South Wales,,7070,1036377829
Mazenod,Mazenod,-29.4642,27.4969,Lesotho,LS,LSO,Maseru,,27553,1426996323
Feliz,Feliz,-29.4508,-51.3058,Brazil,BR,BRA,Rio Grande do Sul,,13764,1076429476
Três Cachoeiras,Tres Cachoeiras,-29.4500,-49.9333,Brazil,BR,BRA,Rio Grande do Sul,minor,10962,1076760504
São Francisco de Paula,Sao Francisco de Paula,-29.4444,-50.5806,Brazil,BR,BRA,Rio Grande do Sul,,21893,1076280018
Teutônia,Teutonia,-29.4333,-51.8000,Brazil,BR,BRA,Rio Grande do Sul,,32797,1076130983
Yamba,Yamba,-29.4333,153.3500,Australia,AU,AUS,New South Wales,,6076,1036259324
La Rioja,La Rioja,-29.4125,-66.8542,Argentina,AR,ARG,La Rioja,admin,180995,1032864257
Koffiefontein,Koffiefontein,-29.4081,25.0022,South Africa,ZA,ZAF,Free State,,10402,1710585904
Arroio do Meio,Arroio do Meio,-29.4008,-51.9450,Brazil,BR,BRA,Rio Grande do Sul,,21963,1076785789
Gramado,Gramado,-29.4000,-50.8667,Brazil,BR,BRA,Rio Grande do Sul,,40134,1076167286
Groutville,Groutville,-29.3880,31.2450,South Africa,ZA,ZAF,KwaZulu-Natal,,12638,1710077829
Ratau,Ratau,-29.3828,27.7892,Lesotho,LS,LSO,Maseru,,26582,1426355442
Nova Petrópolis,Nova Petropolis,-29.3670,-51.1000,Brazil,BR,BRA,Rio Grande do Sul,,23177,1076513774
Qiloane,Qiloane,-29.3625,27.6319,Lesotho,LS,LSO,Maseru,,24093,1426291915
Canela,Canela,-29.3617,-50.8156,Brazil,BR,BRA,Rio Grande do Sul,,45488,1076049094
KwaDukuza,KwaDukuza,-29.3333,31.2917,South Africa,ZA,ZAF,KwaZulu-Natal,,101224,1710530492
Arroio do Tigre,Arroio do Tigre,-29.3328,-53.0928,Brazil,BR,BRA,Rio Grande do Sul,,12058,1076835084
Tôrres,Torres,-29.3267,-49.7675,Brazil,BR,BRA,Rio Grande do Sul,minor,41751,1076421011
Maseru,Maseru,-29.3100,27.4800,Lesotho,LS,LSO,Maseru,primary,343541,1426977668
Villa Unión,Villa Union,-29.3000,-68.2000,Argentina,AR,ARG,La Rioja,minor,12263,1032705545
Carlos Barbosa,Carlos Barbosa,-29.3000,-51.5000,Brazil,BR,BRA,Rio Grande do Sul,,30418,1076670550
Garibaldi,Garibaldi,-29.2889,-51.5642,Brazil,BR,BRA,Rio Grande do Sul,,34335,1076481816
Mokhotlong,Mokhotlong,-29.2885,29.0656,Lesotho,LS,LSO,Mokhotlong,admin,8809,1426785819
Roca Sales,Roca Sales,-29.2833,-51.8667,Brazil,BR,BRA,Rio Grande do Sul,,10418,1076512734
Port Denison,Port Denison,-29.2750,114.9194,Australia,AU,AUS,Western Australia,,1410,1036873405
Recreo,Recreo,-29.2667,-65.0667,Argentina,AR,ARG,Catamarca,,11847,1032000017
Senekane,Senekane,-29.2525,27.7433,Lesotho,LS,LSO,Berea,,22262,1426773784
Encantado,Encantado,-29.2358,-51.8700,Brazil,BR,BRA,Rio Grande do Sul,,22962,1076221232
Tostado,Tostado,-29.2333,-61.7667,Argentina,AR,ARG,Santa Fe,minor,14582,1032032722
Reconquista,Reconquista,-29.2333,-59.9333,Argentina,AR,ARG,Santa Fe,minor,73293,1032927391
Farroupilha,Farroupilha,-29.2333,-51.3500,Brazil,BR,BRA,Rio Grande do Sul,,69885,1076221850
Júlio de Castilhos,Julio de Castilhos,-29.2269,-53.6817,Brazil,BR,BRA,Rio Grande do Sul,,18226,1076339588
Passo do Sertão,Passo do Sertao,-29.2167,-49.8000,Brazil,BR,BRA,Santa Catarina,,8668,1076001025
Morawa,Morawa,-29.2111,116.0089,Australia,AU,AUS,Western Australia,,443,1036194388
Mercedes,Mercedes,-29.2000,-58.0833,Argentina,AR,ARG,Corrientes,minor,33551,1032972413
